{"id":1213,"iata":"CDG","icao":"LFPG","name":"Charles de Gaulle Airport (Roissy Airport)","location":"Paris, Île-de-France, France","street_number":"","street":"","city":"Roissy-en-France","county":"","state":"Île-de-France","country_iso":"FR","country":"France","postal_code":"95700","phone":"+33 1 70 36 39 50","latitude":49.00969,"longitude":2.5479245,"uct":120,"website":"http://www.parisaeroport.fr/","icao_code_source":"icao_code"}
{"id":908,"iata":"BPS","icao":"SBPS","name":"Porto Seguro Airport","location":"Porto Seguro, Bahia, Brazil","street_number":"68","street":"Rua Primeiro de Maio","city":"","county":"Porto Seguro","state":"Bahia","country_iso":"BR","country":"Brazil","postal_code":"45810-000","phone":"+55 73 3288-1880","latitude":-16.439308,"longitude":-39.081562,"uct":-180,"website":"http://www.aeroportoseguro.com.br/","icao_code_source":"icao_code"}
{"id":410,"iata":"ATL","icao":"KATL","name":"Hartsfield–Jackson Atlanta International Airport","location":"Atlanta, Georgia, United States","street_number":"6000","street":"North Terminal Parkway","city":"Atlanta","county":"","state":"Georgia","country_iso":"US","country":"United States","postal_code":"30320","phone":"+1 800-897-1910","latitude":33.640728,"longitude":-84.427704,"uct":-240,"website":"http://www.atl.com/","icao_code_source":"icao_code"}
{"id":3301,"iata":"ITB","icao":"SBIH","name":"Itaituba Airport","location":"Itaituba, Pará, Brazil","street_number":"","street":"","city":"","county":"Itaituba","state":"State of Pará","country_iso":"BR","country":"Brazil","postal_code":"","phone":"","latitude":-4.245743,"longitude":-56.006847,"uct":-180,"website":"","icao_code_source":"icao_code"}
{"id":1284,"iata":"CGN","icao":"EDDK","name":"Cologne Bonn Airport","location":"Cologne / Bonn, North Rhine-Westphalia, Germany","street_number":"","street":"Kennedystraße","city":"Köln","county":"Köln","state":"Nordrhein-Westfalen","country_iso":"DE","country":"Germany","postal_code":"51147","phone":"+49 2203 404001","latitude":50.870716,"longitude":7.140734,"uct":120,"website":"https://www.koeln-bonn-airport.de/","icao_code_source":"icao_code"}
{"id":6811,"iata":"SJK","icao":"SBSJ","name":"Professor Urbano Ernesto Stumpf Airport","location":"São José dos Campos, São Paulo, Brazil","street_number":"1941","street":"Avenida Brigadeiro Faria Lima","city":"","county":"São José dos Campos","state":"São Paulo","country_iso":"BR","country":"Brazil","postal_code":"12227-000","phone":"+55 12 3946-3000","latitude":-23.225304,"longitude":-45.861576,"uct":-180,"website":"http://www.infraero.gov.br/","icao_code_source":"icao_code"}
{"id":1857,"iata":"DOH","icao":"OTHH","name":"Hamad International Airport","location":"Doha, Qatar","street_number":"","street":"","city":"Doha","county":"","state":"Doha","country_iso":"QA","country":"Qatar","postal_code":"","phone":"+974 4010 6666","latitude":25.260595,"longitude":51.613766,"uct":180,"website":"http://www.dohahamadairport.com/","icao_code_source":"icao_code"}
{"id":8322,"iata":"XAP","icao":"SBCH","name":"Serafin Enoss Bertaso Airport","location":"Chapecó, Santa Catarina, Brazil","street_number":"4535D","street":"Acesso Florenal Ribeiro","city":"","county":"Chapecó","state":"Santa Catarina","country_iso":"BR","country":"Brazil","postal_code":"89815-900","phone":"+55 49 3322-1034","latitude":-27.134077,"longitude":-52.66066,"uct":-180,"website":"http://www.chapeco.sc.gov.br/","icao_code_source":"icao_code"}
{"id":1343,"iata":"CJC","icao":"SCCF","name":"El Loa Airport","location":"Calama, Chile","street_number":"","street":"","city":"Calama","county":"El Loa","state":"Región de Antofagasta","country_iso":"CL","country":"Chile","postal_code":"","phone":"","latitude":-22.49511,"longitude":-68.907906,"uct":-180,"website":"http://www.avis.cl/sucursal/calama","icao_code_source":"icao_code"}
{"id":8132,"iata":"WDH","icao":"FYWH","name":"Hosea Kutako International Airport","location":"Windhoek, Namibia","street_number":"","street":"","city":"","county":"","state":"Khomas Region","country_iso":"NA","country":"Namibia","postal_code":"","phone":"+264 61 295 5600","latitude":-22.484776,"longitude":17.470316,"uct":120,"website":"http://www.airports.com.na/airports/hosea-kutako-international-airport/12/","icao_code_source":"icao_code"}
{"id":1404,"iata":"CMG","icao":"SBCR","name":"Corumbá International Airport","location":"Corumbá, Mato Grosso do Sul, Brazil","street_number":"S/n","street":"Rua Santos Dumont","city":"","county":"Corumbá","state":"Mato Grosso do Sul","country_iso":"BR","country":"Brazil","postal_code":"79332-150","phone":"+55 67 3231-3322","latitude":-19.013786,"longitude":-57.66343,"uct":-240,"website":"http://www4.infraero.gov.br/aeroportos/aeroporto-internacional-de-corumba/","icao_code_source":"icao_code"}
{"id":8981,"iata":"ALT","icao":"SDWQ","name":"Alenquer Airport","location":"Alenquer, Pará, Brazil","street_number":"","street":"Alameda das Comunidades Portuguesas","city":"Alenquer","county":"","state":"Pará","country_iso":"BR","country":"Brazil","postal_code":"","phone":"","latitude":-1.93889,"longitude":-54.7472,"uct":-240,"website":"","icao_code_source":"icao_code"}
{"id":277,"iata":"ANC","icao":"PANC","name":"Ted Stevens Anchorage International Airport","location":"Anchorage, Alaska, United States","street_number":"5000","street":"West International Airport Road","city":"Anchorage","county":"Anchorage","state":"Alaska","country_iso":"US","country":"United States","postal_code":"99502","phone":"+1 907-266-2526","latitude":61.175888,"longitude":-149.99008,"uct":-480,"website":"http://dot.state.ak.us/anc/","icao_code_source":"icao_code"}
{"id":8291,"iata":"WUH","icao":"ZHHH","name":"Wuhan Tianhe International Airport","location":"Wuhan, Hubei, China","street_number":"","street":"","city":"Wuhan","county":"","state":"Hubei","country_iso":"CN","country":"China","postal_code":"","phone":"+86 27 96577","latitude":30.776617,"longitude":114.21245,"uct":480,"website":"","icao_code_source":"icao_code"}
{"id":7845,"iata":"URG","icao":"SBUG","name":"Rubem Berta International Airport","location":"Uruguaiana, Rio Grande do Sul, Brazil","street_number":"s/n","street":"Acesso Marechal Setembrino de Carvalho","city":"","county":"Uruguaiana","state":"Rio Grande do Sul","country_iso":"BR","country":"Brazil","postal_code":"97513-780","phone":"+55 55 3413-1314","latitude":-29.783995,"longitude":-57.0357,"uct":-180,"website":"http://www4.infraero.gov.br/aeroportos/aeroporto-internacional-de-uruguaiana-rubem-berta/","icao_code_source":"icao_code"}
{"id":431,"iata":"AUH","icao":"OMAA","name":"Abu Dhabi International Airport","location":"Abu Dhabi, United Arab Emirates","street_number":"","street":"","city":"Abu Dhabi","county":"","state":"Abu Dhabi","country_iso":"AE","country":"United Arab Emirates","postal_code":"","phone":"+971 2 505 5555","latitude":24.441938,"longitude":54.650074,"uct":240,"website":"http://www.abudhabiairport.ae/","icao_code_source":"icao_code"}
{"id":8988,"iata":"NAT","icao":"SBSG","name":"São Gonçalo do Amarante–Governador Aluízio Alves International Airport","location":"Natal, Rio Grande do Norte, Brazil","street_number":"","street":"","city":"","county":"São Gonçalo do Amarante","state":"Rio Grande do Norte","country_iso":"BR","country":"Brazil","postal_code":"59290-000","phone":"+55 84 3343-6060","latitude":-5.7679067,"longitude":-35.364033,"uct":-180,"website":"http://www.natal.aero/","icao_code_source":"icao_code"}
{"id":6992,"iata":"SQX","icao":"SSOE","name":"Hélio Wasum Airport","location":"São Miguel do Oeste, Santa Catarina, Brazil","street_number":"","street":"","city":"","county":"São Miguel do Oeste","state":"State of Santa Catarina","country_iso":"BR","country":"Brazil","postal_code":"89900-000","phone":"","latitude":-26.778214,"longitude":-53.50558,"uct":-180,"website":"","icao_code_source":"icao_code"}
{"id":128,"iata":"AGA","icao":"GMAD","name":"Agadir–Al Massira Airport","location":"Agadir, Morocco","street_number":"","street":"","city":"Agadir Al Massira","county":"إنزكان-أيت ملول","state":"جهة سوس ماسة","country_iso":"MA","country":"Morocco","postal_code":"80000","phone":"+212 5288-39152","latitude":30.327028,"longitude":-9.4128895,"uct":60,"website":"http://www.agadir-airport.com/","icao_code_source":"icao_code"}
{"id":2279,"iata":"FEN","icao":"SBFN","name":"Fernando de Noronha Airport (Gov. Carlos Wilson Airport)","location":"Fernando de Noronha, Pernambuco, Brazil","street_number":"","street":"","city":"","county":"Fernando de Noronha","state":"State of Pernambuco","country_iso":"BR","country":"Brazil","postal_code":"53990-000","phone":"","latitude":-3.8546145,"longitude":-32.424385,"uct":-120,"website":"","icao_code_source":"icao_code"}
{"id":4095,"iata":"LDB","icao":"SBLO","name":"Londrina–Governador José Richa Airport","location":"Londrina, Paraná, Brazil","street_number":"300","street":"Rua Tenente João Maurício Medeiros","city":"","county":"Londrina","state":"Paraná","country_iso":"BR","country":"Brazil","postal_code":"86039-100","phone":"+55 43 3027-9000","latitude":-23.328579,"longitude":-51.13799,"uct":-180,"website":"http://www4.infraero.gov.br/aeroportos/aeroporto-de-londrina-governador-jose-richa/","icao_code_source":"icao_code"}
{"id":3297,"iata":"IST","icao":"LTBA","name":"Istanbul Atatürk Airport","location":"Istanbul, Turkey","street_number":"","street":"","city":"","county":"Bakırköy","state":"Istanbul","country_iso":"TR","country":"Turkey","postal_code":"34149","phone":"+90 212 463 30 00","latitude":40.98299,"longitude":28.810442,"uct":180,"website":"http://www.ataturkairport.com/","icao_code_source":"icao_code"}
{"id":6778,"iata":"SID","icao":"GVAC","name":"Amílcar Cabral International Airport","location":"Sal, Cape Verde","street_number":"","street":"Aeroporto Internacional Amílcar Cabral","city":"Espargos","county":"","state":"Sal","country_iso":"CV","country":"Cape Verde","postal_code":"4110","phone":"+238 241 14 68","latitude":16.73458,"longitude":-22.943975,"uct":-60,"website":"http://www.asa.cv/index.php?option=com_content&view=article&id=137&Itemid=58","icao_code_source":"icao_code"}
{"id":1028,"iata":"BVB","icao":"SBBV","name":"Boa Vista International Airport","location":"Boa Vista, Roraima, Brazil","street_number":"","street":"","city":"","county":"Boa Vista","state":"State of Roraima","country_iso":"BR","country":"Brazil","postal_code":"","phone":"+55 95 3198-0144","latitude":2.8419237,"longitude":-60.69259,"uct":-240,"website":"http://www.infraero.gov.br/","icao_code_source":"icao_code"}
{"id":7818,"iata":"UNA","icao":"SBTC","name":"Una-Comandatuba Airport","location":"Una / Comandatuba Island, Bahia, Brazil","street_number":"","street":"","city":"","county":"Una","state":"State of Bahia","country_iso":"BR","country":"Brazil","postal_code":"45690-000","phone":"","latitude":-15.357702,"longitude":-38.9957,"uct":-180,"website":"","icao_code_source":"icao_code"}
{"id":6269,"iata":"RAO","icao":"SBRP","name":"Leite Lopes Airport","location":"Ribeirão Preto, São Paulo, Brazil","street_number":"","street":"Avenida Thomaz Alberto Whately","city":"","county":"Ribeirão Preto","state":"São Paulo","country_iso":"BR","country":"Brazil","postal_code":"14075-390","phone":"+55 16 3626-3376","latitude":-21.139164,"longitude":-47.77657,"uct":-180,"website":"http://www.daesp.sp.gov.br/aeroporto-detalhe/?id=883","icao_code_source":"icao_code"}
{"id":2754,"iata":"GUZ","icao":"SNGA","name":"Guarapari Airport","location":"Guarapari, Espírito Santo, Brazil","street_number":"187","street":"Avenida Padre José Anchieta","city":"","county":"Guarapari","state":"Espírito Santo","country_iso":"BR","country":"Brazil","postal_code":"29215-250","phone":"+55 27 3361-2813","latitude":-20.647001,"longitude":-40.490875,"uct":-180,"website":"","icao_code_source":"icao_code"}
{"id":852,"iata":"BNE","icao":"YBBN","name":"Brisbane Airport","location":"Brisbane, Queensland, Australia","street_number":"11","street":"The Circuit","city":"Brisbane Airport","county":"Brisbane City","state":"Queensland","country_iso":"AU","country":"Australia","postal_code":"4008","phone":"+61 7 3406 3000","latitude":-27.394215,"longitude":153.12183,"uct":600,"website":"http://www.bne.com.au/","icao_code_source":"icao_code"}
{"id":3473,"iata":"JPA","icao":"SBJP","name":"Presidente Castro Pinto International Airport","location":"João Pessoa, Paraíba, Brazil","street_number":"s/n","street":"Aeroporto Internacional Presidente Castro Pinto","city":"","county":"João Pessoa","state":"Paraíba","country_iso":"BR","country":"Brazil","postal_code":"58308-901","phone":"+55 83 3041-4200","latitude":-7.146009,"longitude":-34.948776,"uct":-180,"website":"http://www4.infraero.gov.br/aeroportos/aeroporto-internacional-de-joao-pessoa-presidente-castro-pinto/","icao_code_source":"icao_code"}
{"id":4064,"iata":"LBR","icao":"SWLB","name":"Lábrea Airport","location":"Lábrea, Amazonas, Brazil","street_number":"","street":"","city":"","county":"Lábrea","state":"Amazonas","country_iso":"BR","country":"Brazil","postal_code":"69830-000","phone":"","latitude":-7.2824507,"longitude":-64.77184,"uct":-240,"website":"","icao_code_source":"icao_code"}
{"id":1956,"iata":"DXB","icao":"OMDB","name":"Dubai International Airport","location":"Dubai, United Arab Emirates","street_number":"","street":"","city":"Dubai","county":"","state":"Dubai","country_iso":"AE","country":"United Arab Emirates","postal_code":"","phone":"+971 4 224 5555","latitude":25.253174,"longitude":55.365673,"uct":240,"website":"http://www.dubaiairports.ae/","icao_code_source":"icao_code"}
{"id":442,"iata":"AUS","icao":"KAUS","name":"Austin–Bergstrom International Airport","location":"Austin, Texas, United States","street_number":"3600","street":"Presidential Boulevard","city":"Austin","county":"Travis County","state":"Texas","country_iso":"US","country":"United States","postal_code":"78719","phone":"+1 512-530-2242","latitude":30.197472,"longitude":-97.66635,"uct":-300,"website":"http://www.austintexas.gov/airport/","icao_code_source":"icao_code"}
{"id":4597,"iata":"MEL","icao":"YMML","name":"Melbourne Airport","location":"Melbourne, Victoria, Australia","street_number":"","street":"Departure Dr","city":"Melbourne Airport","county":"Hume City","state":"Victoria","country_iso":"AU","country":"Australia","postal_code":"3045","phone":"+61 3 9297 1600","latitude":-37.669014,"longitude":144.84103,"uct":660,"website":"http://www.melbourneairport.com.au/","icao_code_source":"icao_code"}
{"id":4561,"iata":"MCZ","icao":"SBMO","name":"Zumbi dos Palmares International Airport","location":"Maceió, Alagoas, Brazil","street_number":"104","street":"Rodovia BR","city":"","county":"Rio Largo","state":"Alagoas","country_iso":"BR","country":"Brazil","postal_code":"57100-971","phone":"+55 82 3036-5200","latitude":-9.511861,"longitude":-35.793182,"uct":-180,"website":"http://www4.infraero.gov.br/","icao_code_source":"icao_code"}
{"id":7019,"iata":"SSA","icao":"SBSV","name":"Deputado Luís Eduardo Magalhães International Airport","location":"Salvador, Bahia, Brazil","street_number":"","street":"","city":"","county":"Salvador","state":"Bahia","country_iso":"BR","country":"Brazil","postal_code":"41520-970","phone":"+55 71 3204-1010","latitude":-12.911098,"longitude":-38.33124,"uct":-180,"website":"http://www4.infraero.gov.br/aeroportos/aeroporto-internacional-de-salvador-dep-luis-eduardo-magalhaes","icao_code_source":"icao_code"}
{"id":7679,"iata":"TXF","icao":"SNTF","name":"Teixeira de Freitas Airport (9 de maio Airport)","location":"Teixeira de Freitas, Bahia, Brazil","street_number":"","street":"Rua Santo Antônio","city":"","county":"Teixeira de Freitas","state":"Bahia","country_iso":"BR","country":"Brazil","postal_code":"45320-000","phone":"+55 71 99670-9061","latitude":-17.522982,"longitude":-39.66908,"uct":-180,"website":"https://www.facebook.com/aeroportodeteixeiradefreitas","icao_code_source":"icao_code"}
{"id":4500,"iata":"MAO","icao":"SBEG","name":"Eduardo Gomes International Airport","location":"Manaus, Amazonas, Brazil","street_number":"1350","street":"Av. Santos Dumont","city":"","county":"Manaus","state":"Amazonas","country_iso":"BR","country":"Brazil","postal_code":"69041-000","phone":"+55 92 3652-1210","latitude":-3.0358474,"longitude":-60.046326,"uct":-240,"website":"http://www4.infraero.gov.br/aeroportos/aeroporto-internacional-de-manaus-eduardo-gomes/","icao_code_source":"icao_code"}
{"id":1340,"iata":"CIZ","icao":"SWKO","name":"Coari Airport","location":"Coari, Amazonas, Brazil","street_number":"","street":"","city":"","county":"Coari","state":"State of Amazonas","country_iso":"BR","country":"Brazil","postal_code":"69460-000","phone":"","latitude":-4.88428,"longitude":-65.349144,"uct":-240,"website":"","icao_code_source":"icao_code"}
{"id":2817,"iata":"HAV","icao":"MUHA","name":"José Martí International Airport","location":"Havana, Cuba","street_number":"","street":"Avenida Rancho Boyeros","city":"La Habana","county":"Boyeros","state":"","country_iso":"CU","country":"Cuba","postal_code":"","phone":"+53 7 2664644","latitude":22.991543,"longitude":-82.41008,"uct":-240,"website":"https://www.ecured.cu/Aeropuerto_Internacional_Jos%C3%A9_Mart%C3%AD","icao_code_source":"icao_code"}
{"id":2912,"iata":"HKG","icao":"VHHH","name":"Hong Kong International Airport (Chek Lap Kok Airport)","location":"Hong Kong","street_number":"1","street":"Sky Plaza Road","city":"","county":"","state":"New Territories","country_iso":"HK","country":"Hong Kong","postal_code":"","phone":"+852 2181 8888","latitude":22.308046,"longitude":113.91848,"uct":480,"website":"http://www.hongkongairport.com/","icao_code_source":"icao_code"}
{"id":2810,"iata":"HAN","icao":"VVNB","name":"Noi Bai International Airport","location":"Hanoi, Vietnam","street_number":"","street":"","city":"","county":"Sóc Sơn","state":"Hà Nội","country_iso":"VN","country":"Vietnam","postal_code":"","phone":"+84 438865047","latitude":21.218716,"longitude":105.80417,"uct":420,"website":"http://vietnamairport.vn/page/69/cang-hang-khong-san-bay/cang-hang-khong-quoc-te-noi-bai","icao_code_source":"icao_code"}
{"id":8338,"iata":"XCR","icao":"LFOK","name":"Châlons Vatry Airport","location":"Châlons-en-Champagne, Champagne-Ardenne, France","street_number":"","street":"Rue Louis Blériot","city":"Bussy-Lettrée","county":"Marne","state":"Grand Est","country_iso":"FR","country":"France","postal_code":"51320","phone":"+33 3 26 64 82 00","latitude":48.780754,"longitude":4.189277,"uct":120,"website":"https://www.parisvatry.com/","icao_code_source":"icao_code"}
{"id":7638,"iata":"TUC","icao":"SANT","name":"Teniente General Benjamín Matienzo International Airport","location":"San Miguel de Tucumán, Tucumán, Argentina","street_number":"","street":"Delfin Gallo","city":"San Miguel de Tucumán","county":"Cruz Alta","state":"Tucumán","country_iso":"AR","country":"Argentina","postal_code":"T4117","phone":"+54 381 426-5072","latitude":-26.835888,"longitude":-65.10836,"uct":-180,"website":"http://www.aa2000.com.ar/tucuman","icao_code_source":"icao_code"}
{"id":6759,"iata":"SHJ","icao":"OMSJ","name":"Sharjah International Airport","location":"Sharjah, United Arab Emirates","street_number":"","street":"","city":"Sharjah","county":"","state":"Sharjah","country_iso":"AE","country":"United Arab Emirates","postal_code":"","phone":"+971 6 558 1111","latitude":25.328436,"longitude":55.512257,"uct":240,"website":"http://www.sharjahairport.ae/","icao_code_source":"icao_code"}
{"id":7493,"iata":"TNA","icao":"ZSJN","name":"Jinan Yaoqiang International Airport","location":"Jinan, Shandong, China","street_number":"1","street":"机场路","city":"Jinan Shi","county":"","state":"Shandong Sheng","country_iso":"CN","country":"China","postal_code":"","phone":"+86 531 96888","latitude":36.8572,"longitude":117.216,"uct":480,"website":"http://www.jnairport.com/","icao_code_source":"icao_code"}
{"id":5666,"iata":"ORX","icao":"SNOX","name":"Oriximiná Airport","location":"Oriximiná, Pará, Brazil","street_number":"","street":"Rua Barão do Rio Branco","city":"","county":"Oriximiná","state":"Pará","country_iso":"BR","country":"Brazil","postal_code":"68270-000","phone":"","latitude":-1.4855014,"longitude":-56.390137,"uct":-180,"website":"","icao_code_source":"icao_code"}
{"id":4606,"iata":"MEU","icao":"SBMD","name":"Serra do Areão Airport","location":"Monte Dourado, Pará, Brazil","street_number":"","street":"","city":"","county":"Almeirim","state":"State of Pará","country_iso":"BR","country":"Brazil","postal_code":"68230-000","phone":"","latitude":-0.8882582,"longitude":-52.599552,"uct":-180,"website":"","icao_code_source":"icao_code"}
{"id":199,"iata":"AJU","icao":"SBAR","name":"Santa Maria Airport","location":"Aracaju, Sergipe, Brazil","street_number":"3249","street":"Terminal Drive","city":"Santa Maria","county":"Santa Barbara County","state":"California","country_iso":"US","country":"United States","postal_code":"93455","phone":"+1 805-922-1726","latitude":34.89914,"longitude":-120.44778,"uct":-420,"website":"http://www.santamariaairport.com/","icao_code_source":"icao_code"}
{"id":4983,"iata":"MTY","icao":"MMMY","name":"General Mariano Escobedo International Airport","location":"Monterrey, Nuevo León, Mexico","street_number":"","street":"Carretera Miguel Alemán km 24","city":"","county":"","state":"Nuevo León","country_iso":"MX","country":"Mexico","postal_code":"66600","phone":"+52 81 8288 7700","latitude":25.777819,"longitude":-100.10799,"uct":-300,"website":"http://www.oma.aero/es/aeropuertos/monterrey/","icao_code_source":"icao_code"}
{"id":4181,"iata":"LHR","icao":"EGLL","name":"Heathrow Airport","location":"London, England, United Kingdom","street_number":"","street":"","city":"Longford","county":"Greater London","state":"England","country_iso":"GB","country":"United Kingdom","postal_code":"","phone":"+44 844 335 1801","latitude":51.470024,"longitude":-0.4542955,"uct":60,"website":"http://www.heathrow.com/","icao_code_source":"icao_code"}
{"id":3020,"iata":"HSV","icao":"KHSV","name":"Huntsville International Airport (Carl T. Jones Field)","location":"Huntsville, Alabama, United States","street_number":"1000","street":"Glenn Hearn Boulevard Southwest","city":"Huntsville","county":"Madison County","state":"Alabama","country_iso":"US","country":"United States","postal_code":"35824","phone":"+1 256-772-9395","latitude":34.64033,"longitude":-86.77569,"uct":-300,"website":"http://www.hsvairport.org/","icao_code_source":"icao_code"}
{"id":5922,"iata":"PIN","icao":"SWPI","name":"Júlio Belém Airport","location":"Parintins, Amazonas, Brazil","street_number":"1","street":"Estr. Odovaldo Novo","city":"","county":"Parintins","state":"Amazonas","country_iso":"BR","country":"Brazil","postal_code":"69152-470","phone":"+55 92 3533-2700","latitude":-2.669512,"longitude":-56.76967,"uct":-240,"website":"","icao_code_source":"icao_code"}
{"id":7325,"iata":"TFF","icao":"SBTF","name":"Tefé Airport","location":"Tefé, Amazonas, Brazil","street_number":"","street":"","city":"Tefé","county":"Tefé","state":"Amazonas","country_iso":"BR","country":"Brazil","postal_code":"69470-000","phone":"","latitude":-3.380402,"longitude":-64.7251,"uct":-240,"website":"http://www4.infraero.gov.br/aeroportos/aeroporto-de-tefe/","icao_code_source":"icao_code"}
{"id":5861,"iata":"PET","icao":"SBPK","name":"João Simões Lopes Neto International Airport","location":"Pelotas, Rio Grande do Sul, Brazil","street_number":"S/n","street":"Avenida Zeferino Costa","city":"","county":"Pelotas","state":"Rio Grande do Sul","country_iso":"BR","country":"Brazil","postal_code":"96070-480","phone":"+55 53 3223-1227","latitude":-31.715822,"longitude":-52.33069,"uct":-180,"website":"http://www.infraero.gov.br/","icao_code_source":"icao_code"}
{"id":3491,"iata":"JTC","icao":"SBAE","name":"Moussa Nakhl Tobias–Bauru/Arealva State Airport","location":"Bauru, São Paulo, Brazil","street_number":"km 5,5","street":"Estrada Municipal Murilo Vilaça Maringoni","city":"","county":"Bauru","state":"São Paulo","country_iso":"BR","country":"Brazil","postal_code":"17022-895","phone":"+55 14 3277-6633","latitude":-22.165993,"longitude":-49.07217,"uct":-180,"website":"http://www.daesp.sp.gov.br/aeroporto-detalhe/?id=851","icao_code_source":"icao_code"}
{"id":4133,"iata":"LET","icao":"SKLT","name":"Alfredo Vásquez Cobo International Airport","location":"Leticia, Colombia","street_number":"","street":"Avenida Vasquez Cobo","city":"","county":"Leticia","state":"Amazonas","country_iso":"CO","country":"Colombia","postal_code":"","phone":"","latitude":-4.1911407,"longitude":-69.941414,"uct":-240,"website":"","icao_code_source":"icao_code"}
{"id":4637,"iata":"MGA","icao":"MNMG","name":"Augusto C. Sandino International Airport","location":"Managua, Nicaragua","street_number":"Km. 11","street":"Carretera Norte","city":"Managua","county":"","state":"Departamento de Managua","country_iso":"NI","country":"Nicaragua","postal_code":"","phone":"+505 2276 9180","latitude":12.144651,"longitude":-86.17132,"uct":-360,"website":"http://www.eaai.com.ni/","icao_code_source":"icao_code"}
{"id":3166,"iata":"IGU","icao":"SBFI","name":"Foz do Iguaçu International Airport","location":"Foz do Iguaçu, Paraná, Brazil","street_number":"","street":"","city":"","county":"Foz do Iguaçu","state":"Paraná","country_iso":"BR","country":"Brazil","postal_code":"85863-900","phone":"+55 45 3521-4200","latitude":-25.59771,"longitude":-54.488514,"uct":-180,"website":"http://www4.infraero.gov.br/aeroportos/aeroporto-internacional-de-foz-do-iguacu-cataratas/contato/","icao_code_source":"icao_code"}
{"id":3434,"iata":"JJG","icao":"SBJA","name":"Humberto Ghizzo Bortoluzzi Regional Airport","location":"Jaguaruna, Santa Catarina, Brazil","street_number":"","street":"","city":"","county":"Jaguaruna","state":"Santa Catarina","country_iso":"BR","country":"Brazil","postal_code":"88715-000","phone":"+55 48 3624-8824","latitude":-28.676765,"longitude":-49.066345,"uct":-180,"website":"http://www.rdlaeroportos.com.br/","icao_code_source":"icao_code"}
{"id":953,"iata":"BSB","icao":"SBBR","name":"Brasília International Airport (Presidente J. Kubitschek Int'l Airport)","location":"Brasília, Distrito Federal, Brazil","street_number":"","street":"Lago Sul","city":"","county":"Brasília","state":"Distrito Federal","country_iso":"BR","country":"Brazil","postal_code":"71608-900","phone":"+55 61 3364-9000","latitude":-15.869737,"longitude":-47.917236,"uct":-180,"website":"http://www.bsb.aero/","icao_code_source":"icao_code"}
{"id":4317,"iata":"LPB","icao":"SLLP","name":"El Alto International Airport","location":"La Paz, Bolivia","street_number":"","street":"","city":"El Alto","county":"","state":"La Paz Department","country_iso":"BO","country":"Bolivia","postal_code":"","phone":"+591 2 2157300","latitude":-16.510248,"longitude":-68.18829,"uct":-240,"website":"","icao_code_source":"icao_code"}
{"id":2886,"iata":"HHN","icao":"EDFH","name":"Frankfurt–Hahn Airport","location":"Hahn, Rhineland-Palatinate, Germany","street_number":"","street":"","city":"Hahn-Flughafen","county":"","state":"Rheinland-Pfalz","country_iso":"DE","country":"Germany","postal_code":"55483","phone":"+49 6543 509113","latitude":49.9429,"longitude":7.262953,"uct":120,"website":"http://www.hahn-airport.de/","icao_code_source":"icao_code"}
{"id":4609,"iata":"MEX","icao":"MMMX","name":"Mexico City International Airport","location":"Mexico City, Mexico","street_number":"S/N","street":"Av Capitan Carlos León","city":"Ciudad de México","county":"","state":"Ciudad de México","country_iso":"MX","country":"Mexico","postal_code":"15620","phone":"+52 55 2482 2400","latitude":19.436077,"longitude":-99.07191,"uct":-300,"website":"http://www.aicm.com.mx/","icao_code_source":"icao_code"}
{"id":1467,"iata":"COR","icao":"SACO","name":"Ingeniero Aeronáutico Ambrosio L.V. Taravella International Airport (Pajas Blancas)","location":"Córdoba, Córdoba, Argentina","street_number":"","street":"","city":"ICAO","county":"","state":"Córdoba","country_iso":"AR","country":"Argentina","postal_code":"","phone":"+54 351 475-0881","latitude":-31.315437,"longitude":-64.21232,"uct":-180,"website":"http://www.aa2000.com.ar/","icao_code_source":"icao_code"}
{"id":5426,"iata":"NVT","icao":"SBNF","name":"Navegantes–Ministro Victor Konder International Airport","location":"Navegantes, Santa Catarina, Brazil","street_number":"1297","street":"Rua Osmar Gaya","city":"","county":"Navegantes","state":"Santa Catarina","country_iso":"BR","country":"Brazil","postal_code":"88372-900","phone":"+55 47 3342-9200","latitude":-26.880535,"longitude":-48.649086,"uct":-180,"website":"http://www4.infraero.gov.br/aeroportos/aeroporto-internacional-de-navegantes-ministro-victor-konder/","icao_code_source":"icao_code"}
{"id":5868,"iata":"PFB","icao":"SBPF","name":"Lauro Kurtz Airport","location":"Passo Fundo, Rio Grande do Sul, Brazil","street_number":"","street":"Rodovia BR 285","city":"","county":"Passo Fundo","state":"Rio Grande do Sul","country_iso":"BR","country":"Brazil","postal_code":"","phone":"+55 54 3313-6566","latitude":-28.242554,"longitude":-52.329823,"uct":-180,"website":"http://www.passofundo.rs.gov.br/","icao_code_source":"icao_code"}
{"id":1255,"iata":"CFC","icao":"SBCD","name":"Caçador Airport","location":"Caçador, Santa Catarina, Brazil","street_number":"s/n","street":"Rodovia Avelino Mandeli","city":"","county":"Caçador","state":"Santa Catarina","country_iso":"BR","country":"Brazil","postal_code":"89500-000","phone":"","latitude":-26.790958,"longitude":-50.94152,"uct":-180,"website":"","icao_code_source":"icao_code"}
{"id":4486,"iata":"MAA","icao":"VOMM","name":"Chennai International Airport","location":"Chennai, Tamil Nadu, India","street_number":"","street":"GST Rd","city":"Chennai","county":"","state":"Tamil Nadu","country_iso":"IN","country":"India","postal_code":"600027","phone":"+91 44 2256 0551","latitude":12.994112,"longitude":80.17087,"uct":330,"website":"https://www.aai.aero/en/airports/chennai","icao_code_source":"icao_code"}
{"id":2371,"iata":"FRA","icao":"EDDF","name":"Frankfurt Airport","location":"Frankfurt, Hessen, Germany","street_number":"","street":"","city":"Frankfurt","county":"Darmstadt","state":"Hesse","country_iso":"DE","country":"Germany","postal_code":"60547","phone":"+49 180 6 3724636","latitude":50.037933,"longitude":8.562152,"uct":120,"website":"http://www.frankfurt-airport.de/","icao_code_source":"icao_code"}
{"id":3702,"iata":"KIN","icao":"MKJP","name":"Norman Manley International Airport","location":"Kingston, Jamaica","street_number":"","street":"","city":"","county":"","state":"Kingston Parish","country_iso":"JM","country":"Jamaica","postal_code":"","phone":"+1 876-924-8452","latitude":17.937174,"longitude":-76.778305,"uct":-300,"website":"http://www.nmia.aero/","icao_code_source":"icao_code"}
{"id":4838,"iata":"MOC","icao":"SBMK","name":"Montes Claros/Mário Ribeiro Airport","location":"Montes Claros, Minas Gerais, Brazil","street_number":"","street":"Avenida Comandante João Milton","city":"","county":"Montes Claros","state":"Minas Gerais","country_iso":"BR","country":"Brazil","postal_code":"39404-844","phone":"+55 38 3229-1200","latitude":-16.704617,"longitude":-43.820087,"uct":-180,"website":"http://www4.infraero.gov.br/aeroportos/aeroporto-de-montes-claros-mario-ribeiro/","icao_code_source":"icao_code"}
{"id":1200,"iata":"CCS","icao":"SVMI","name":"Simón Bolívar International Airport","location":"Caracas, Venezuela","street_number":"","street":"","city":"Maiquetía","county":"Vargas","state":"Vargas","country_iso":"VE","country":"Venezuela","postal_code":"1162","phone":"+58 424-2067470","latitude":10.597259,"longitude":-67.00534,"uct":-240,"website":"http://www.aeropuerto-maiquetia.com.ve/","icao_code_source":"icao_code"}
{"id":4686,"iata":"MIA","icao":"KMIA","name":"Miami International Airport","location":"Miami, Florida, United States","street_number":"2100","street":"NW 42nd Ave","city":"Miami","county":"Miami-Dade County","state":"Florida","country_iso":"US","country":"United States","postal_code":"33126","phone":"+1 305-876-7000","latitude":25.795864,"longitude":-80.28705,"uct":-240,"website":"http://www.miami-airport.com/","icao_code_source":"icao_code"}
{"id":8012,"iata":"VLN","icao":"SVVA","name":"Arturo Michelena International Airport","location":"Valencia, Venezuela","street_number":"","street":"","city":"","county":"","state":"","country_iso":"","country":"","postal_code":"","phone":"","latitude":0.0,"longitude":0.0,"uct":0,"website":"","icao_code_source":"icao_code"}
{"id":3098,"iata":"IAD","icao":"KIAD","name":"Washington Dulles International Airport","location":"Washington, D.C.,1 United States","street_number":"1","street":"Saarinen Circle","city":"Dulles","county":"","state":"Virginia","country_iso":"US","country":"United States","postal_code":"20166","phone":"+1 703-572-2700","latitude":38.953117,"longitude":-77.456535,"uct":-240,"website":"http://www.mwaa.com/dulles/dulles.htm","icao_code_source":"icao_code"}
{"id":5071,"iata":"MXP","icao":"LIMC","name":"Milan–Malpensa Airport","location":"Milan, Lombardy, Italy","street_number":"","street":"","city":"","county":"Province of Varese","state":"Lombardy","country_iso":"IT","country":"Italy","postal_code":"21010","phone":"+39 02 232323","latitude":45.630062,"longitude":8.725531,"uct":120,"website":"http://www.milanomalpensa-airport.com/","icao_code_source":"icao_code"}
{"id":1149,"iata":"CAN","icao":"ZGGG","name":"Guangzhou Baiyun International Airport","location":"Guangzhou, Guangdong, China","street_number":"","street":"","city":"Guangzhou","county":"","state":"Guangdong","country_iso":"CN","country":"China","postal_code":"","phone":"+86 20 3606 6999","latitude":23.395908,"longitude":113.30797,"uct":480,"website":"http://www.baiyunairport.com/","icao_code_source":"icao_code"}
{"id":1309,"iata":"CHR","icao":"LFLX","name":"Châteauroux-Centre \"Marcel Dassault\" Airport","location":"Châteauroux, Centre-Val de Loire, France","street_number":"","street":"","city":"","county":"Indre","state":"Centre-Val de Loire","country_iso":"FR","country":"France","postal_code":"36130","phone":"+33 2 54 60 53 53","latitude":46.858067,"longitude":1.722812,"uct":120,"website":"http://www.chateauroux-airport.com/","icao_code_source":"icao_code"}
{"id":757,"iata":"BJL","icao":"GBYD","name":"Banjul International Airport","location":"Banjul, Gambia","street_number":"","street":"","city":"Yundum","county":"Kombo North","state":"West Coast Region","country_iso":"GM","country":"The Gambia","postal_code":"","phone":"+220 447 3000","latitude":13.34406,"longitude":-16.6522,"uct":0,"website":"http://www.banjulairport.com/","icao_code_source":"icao_code"}
{"id":3354,"iata":"IZA","icao":"SBZM","name":"Presidente Itamar Franco Airport (Zona da Mata Regional Airport)","location":"Juiz de Fora, Minas Gerais, Brazil","street_number":"S/N","street":"Rodovia MG 353, Klm 38","city":"","county":"Goianá","state":"Minas Gerais","country_iso":"BR","country":"Brazil","postal_code":"36150-000","phone":"+55 32 3274-6200","latitude":-21.510195,"longitude":-43.16205,"uct":-180,"website":"http://www.cazm.com.br/","icao_code_source":"icao_code"}
{"id":929,"iata":"BRA","icao":"SNBR","name":"Barreiras Airport","location":"Barreiras, Bahia, Brazil","street_number":"204","street":"Rua Anapolina","city":"","county":"Barreiras","state":"Bahia","country_iso":"BR","country":"Brazil","postal_code":"47806-470","phone":"+55 77 3611-2361","latitude":-12.078983,"longitude":-45.0102,"uct":-180,"website":"","icao_code_source":"icao_code"}
{"id":6160,"iata":"PUJ","icao":"MDPC","name":"Punta Cana International Airport","location":"Punta Cana, Dominican Republic","street_number":"","street":"Carretera Aeropuerto","city":"Punta Cana","county":"","state":"La Altagracia","country_iso":"DO","country":"Dominican Republic","postal_code":"23000","phone":"+1 809-959-2376","latitude":18.562244,"longitude":-68.368355,"uct":-240,"website":"http://www.puntacanainternationalairport.com/","icao_code_source":"icao_code"}
{"id":1411,"iata":"CMN","icao":"GMMN","name":"Mohammed V International Airport","location":"Casablanca, Morocco","street_number":"","street":"","city":"Nouaceur","county":"","state":"Casablanca-Settat","country_iso":"MA","country":"Morocco","postal_code":"","phone":"+212 5223-39040","latitude":33.371754,"longitude":-7.587027,"uct":60,"website":"","icao_code_source":"icao_code"}
{"id":1156,"iata":"CAU","icao":"SNRU","name":"Caruaru Airport (Oscar Laranjeiras Airport)","location":"Caruaru, Pernambuco, Brazil","street_number":"","street":"Avenida Dr Oscár Laranjeira neto","city":"","county":"Caruaru","state":"Pernambuco","country_iso":"BR","country":"Brazil","postal_code":"","phone":"","latitude":-8.282731,"longitude":-36.012905,"uct":-180,"website":"","icao_code_source":"icao_code"}
{"id":5978,"iata":"PLU","icao":"SBBH","name":"Belo Horizonte/Pampulha – Carlos Drummond de Andrade Airport","location":"Belo Horizonte, Minas Gerais, Brazil","street_number":"204","street":"Praça Bagatelle","city":"","county":"Belo Horizonte","state":"Minas Gerais","country_iso":"BR","country":"Brazil","postal_code":"31270-705","phone":"+55 31 3490-2000","latitude":-19.849848,"longitude":-43.95489,"uct":-180,"website":"http://www4.infraero.gov.br/aeroportos/aeroporto-de-belo-horizonte-pampulha-carlos-drummond-de-andrade/","icao_code_source":"icao_code"}
{"id":2732,"iata":"GUA","icao":"MGGT","name":"La Aurora International Airport","location":"Guatemala City, Guatemala","street_number":"","street":"","city":"Guatemala City","county":"","state":"Guatemala Department","country_iso":"GT","country":"Guatemala","postal_code":"","phone":"+502 2321 5000","latitude":14.584098,"longitude":-90.52769,"uct":-360,"website":"http://www.dgac.gob.gt/","icao_code_source":"icao_code"}
{"id":7941,"iata":"VCP","icao":"SBKP","name":"Viracopos/Campinas International Airport","location":"São Paulo / Campinas, São Paulo, Brazil","street_number":"km 66","street":"Rodovia Santos Dumont","city":"","county":"Campinas","state":"São Paulo","country_iso":"BR","country":"Brazil","postal_code":"13055-900","phone":"+55 19 3725-5000","latitude":-23.008205,"longitude":-47.13757,"uct":-180,"website":"http://www.viracopos.com/","icao_code_source":"icao_code"}
{"id":1158,"iata":"CAW","icao":"SBCP","name":"Bartolomeu Lysandro Airport","location":"Campos dos Goytacazes, Rio de Janeiro, Brazil","street_number":"36-44","street":"Estrada Brejo Grande","city":"","county":"Campos dos Goytacazes","state":"Rio de Janeiro","country_iso":"BR","country":"Brazil","postal_code":"28093","phone":"+55 22 2733-5022","latitude":-21.701117,"longitude":-41.308186,"uct":-180,"website":"http://www.infraero.gov.br/","icao_code_source":"icao_code"}
{"id":5011,"iata":"MVD","icao":"SUMU","name":"Carrasco Gral. Cesáreo L. Berisso International Airport","location":"Montevideo, Uruguay","street_number":"","street":"101","city":"Ciudad de la Costa","county":"","state":"Departamento de Canelones","country_iso":"UY","country":"Uruguay","postal_code":"14000","phone":"+598 2604 0329","latitude":-34.83682,"longitude":-56.016518,"uct":-180,"website":"http://www.aeropuertodecarrasco.com.uy/","icao_code_source":"icao_code"}
{"id":4157,"iata":"LGG","icao":"EBLG","name":"Liège Airport","location":"Liège, Belgium","street_number":"","street":"Rue de l’Aéroport","city":"Grâce-Hollogne","county":"Liège","state":"Wallonie","country_iso":"BE","country":"Belgium","postal_code":"4460","phone":"+32 4 234 84 11","latitude":50.64116,"longitude":5.4479117,"uct":120,"website":"http://www.liegeairport.com/","icao_code_source":"icao_code"}
{"id":4689,"iata":"MID","icao":"MMMD","name":"Manuel Crescencio Rejón International Airport","location":"Mérida, Yucatán, Mexico","street_number":"","street":"","city":"Mérida","county":"","state":"Yucatan","country_iso":"MX","country":"Mexico","postal_code":"97291","phone":"+52 999 940 6090","latitude":20.933842,"longitude":-89.660446,"uct":-300,"website":"http://www.asur.com.mx/","icao_code_source":"icao_code"}
{"id":4308,"iata":"LOS","icao":"DNMM","name":"Murtala Muhammed International Airport","location":"Lagos, Nigeria","street_number":"","street":"","city":"Lagos","county":"","state":"Lagos","country_iso":"NG","country":"Nigeria","postal_code":"","phone":"+234 1 493 3385","latitude":6.5818186,"longitude":3.3211348,"uct":60,"website":"http://www.faan.gov.ng/mmia/","icao_code_source":"icao_code"}
{"id":1911,"iata":"DSS","icao":"GOBD","name":"Blaise Diagne International Airport","location":"Dakar, Senegal","street_number":"","street":"","city":"Ndiass","county":"","state":"Thiès Region","country_iso":"SN","country":"Senegal","postal_code":"","phone":"+221 33 939 69 00","latitude":14.670855,"longitude":-17.067347,"uct":0,"website":"http://www.dakaraeroport.com/","icao_code_source":"icao_code"}
{"id":1254,"iata":"CFB","icao":"SBCB","name":"Cabo Frio International Airport","location":"Cabo Frio, Rio de Janeiro, Brazil","street_number":"s/n","street":"Estrada Velha do Arraial do Cabo","city":"","county":"Cabo Frio","state":"Rio de Janeiro","country_iso":"BR","country":"Brazil","postal_code":"28900-000","phone":"+55 22 2647-9500","latitude":-22.925629,"longitude":-42.079235,"uct":-180,"website":"http://www.aeroportodecabofrio.com.br/","icao_code_source":"icao_code"}
{"id":2090,"iata":"EMA","icao":"EGNX","name":"East Midlands Airport","location":"Nottingham / Leicester / Derby, England, United Kingdom","street_number":"","street":"","city":"Castle Donington","county":"Leicestershire","state":"England","country_iso":"GB","country":"United Kingdom","postal_code":"DE74 2SA","phone":"+44 808 169 7032","latitude":52.829372,"longitude":-1.332134,"uct":60,"website":"http://www.eastmidlandsairport.com/","icao_code_source":"icao_code"}
{"id":4555,"iata":"MCT","icao":"OOMS","name":"Muscat International Airport","location":"Muscat, Oman","street_number":"","street":"","city":"Muscat","county":"","state":"Muscat Governorate","country_iso":"OM","country":"Oman","postal_code":"","phone":"+968 24 519223","latitude":23.60135,"longitude":58.290123,"uct":240,"website":"https://www.omanairports.co.om/","icao_code_source":"icao_code"}
{"id":1399,"iata":"CMB","icao":"VCBI","name":"Bandaranaike International Airport","location":"Colombo, Sri Lanka","street_number":"","street":"Canada Friendship Rd","city":"කටුනායක","county":"ගම්පහ","state":"බස්නාහිර පළාත, ශ් රී ලංකාව","country_iso":"LK","country":"Sri Lanka","postal_code":"11450","phone":"+94 112 264 444","latitude":7.1801553,"longitude":79.884254,"uct":330,"website":"http://www.airport.lk/","icao_code_source":"icao_code"}
{"id":75,"iata":"ADD","icao":"HAAB","name":"Bole International Airport","location":"Addis Ababa, Ethiopia","street_number":"","street":"","city":"Addis Ababa","county":"North Shewa(R4)","state":"Oromia","country_iso":"ET","country":"Ethiopia","postal_code":"","phone":"+251 11 665 6666","latitude":8.980069,"longitude":38.79893,"uct":180,"website":"http://addisairport.com/","icao_code_source":"icao_code"}
{"id":1138,"iata":"CAC","icao":"SBCA","name":"Cascavel Airport (Adalberto Mendes da Silva Airport)","location":"Cascavel, Paraná, Brazil","street_number":"S/n","street":"Avenida Itelo Webber","city":"","county":"Cascavel","state":"Paraná","country_iso":"BR","country":"Brazil","postal_code":"85804-810","phone":"+55 45 3228-2499","latitude":-25.001816,"longitude":-53.50192,"uct":-180,"website":"http://www.cettrans.com.br/aeroporto.php","icao_code_source":"icao_code"}
{"id":5853,"iata":"PEK","icao":"ZBAA","name":"Beijing Capital International Airport","location":"Beijing, China","street_number":"","street":"","city":"","county":"","state":"Beijing","country_iso":"CN","country":"China","postal_code":"","phone":"+86 10 96158","latitude":40.079857,"longitude":116.60311,"uct":480,"website":"http://www.bcia.com.cn/","icao_code_source":"icao_code"}
{"id":2695,"iata":"GRU","icao":"SBGR","name":"São Paulo–Guarulhos International Airport","location":"São Paulo, Brazil","street_number":"s/nº","street":"Rod. Hélio Smidt","city":"","county":"Guarulhos","state":"São Paulo","country_iso":"BR","country":"Brazil","postal_code":"07190-100","phone":"+55 11 2445-2945","latitude":-23.430573,"longitude":-46.47304,"uct":-180,"website":"http://www.gru.com.br/","icao_code_source":"icao_code"}
{"id":7994,"iata":"VIX","icao":"SBVT","name":"Eurico de Aguiar Salles Airport","location":"Vitória, Espírito Santo, Brazil","street_number":"3800","street":"Avenida Fernando Ferrari","city":"","county":"Vitória","state":"Espírito Santo","country_iso":"BR","country":"Brazil","postal_code":"29075-920","phone":"+55 27 3235-6300","latitude":-20.257648,"longitude":-40.283535,"uct":-180,"website":"http://www.infraero.gov.br/index.php/br/aeroportos/espirito-santo/aeroporto-de-vitoria-eurico-de-aguiar-salles-vitoria-es.html","icao_code_source":"icao_code"}
{"id":1429,"iata":"CNF","icao":"SBCF","name":"Tancredo Neves International Airport (Confins Int'l Airport)","location":"Belo Horizonte, Minas Gerais, Brazil","street_number":"s/n","street":"LMG-800","city":"","county":"Confins","state":"Minas Gerais","country_iso":"BR","country":"Brazil","postal_code":"33500-900","phone":"+55 31 3689-2700","latitude":-19.634098,"longitude":-43.965397,"uct":-180,"website":"http://www.bh-airport.com.br/","icao_code_source":"icao_code"}
{"id":268,"iata":"AMS","icao":"EHAM","name":"Amsterdam Airport Schiphol","location":"Amsterdam, Netherlands","street_number":"202","street":"Evert van de Beekstraat","city":"Schiphol","county":"Haarlemmermeer","state":"Noord-Holland","country_iso":"NL","country":"Netherlands","postal_code":"1118 CP","phone":"+31 20 794 0800","latitude":52.31054,"longitude":4.7682743,"uct":120,"website":"http://www.schiphol.nl/","icao_code_source":"icao_code"}
{"id":8847,"iata":"YYZ","icao":"CYYZ","name":"Toronto Pearson International Airport","location":"Toronto, Ontario, Canada","street_number":"6301","street":"Silver Dart Drive","city":"Mississauga","county":"","state":"Ontario","country_iso":"CA","country":"Canada","postal_code":"L5P 1B2","phone":"+1 416-247-7678","latitude":43.67772,"longitude":-79.62482,"uct":-240,"website":"http://www.torontopearson.com/","icao_code_source":"icao_code"}
{"id":3495,"iata":"JUA","icao":"SIZX","name":"Inácio Luís do Nascimento Airport","location":"Juara, Mato Grosso, Brazil","street_number":"5","street":"Avenida Rio Arinos","city":"","county":"Juara","state":"Mato Grosso","country_iso":"BR","country":"Brazil","postal_code":"78575-000","phone":"+55 66 99648-3870","latitude":-11.298683,"longitude":-57.545204,"uct":-240,"website":"","icao_code_source":"icao_code"}
{"id":5836,"iata":"PDP","icao":"SULS","name":"Capitán de Corbeta Carlos A. Curbelo International Airport","location":"Punta del Este, Uruguay","street_number":"","street":"Ruta 113","city":"Maldonado","county":"","state":"Departamento de Maldonado","country_iso":"UY","country":"Uruguay","postal_code":"20100","phone":"+598 4255 9777","latitude":-34.86112,"longitude":-55.098217,"uct":-180,"website":"http://www.puntadeleste.aero/","icao_code_source":"icao_code"}
{"id":1373,"iata":"CKY","icao":"GUCY","name":"Conakry International Airport (Gbessia Int'l Airport)","location":"Conakry, Guinea","street_number":"","street":"N1","city":"Conakry","county":"","state":"Conakry","country_iso":"GN","country":"Guinea","postal_code":"","phone":"+224 627 09 95 57","latitude":9.575655,"longitude":-13.62017,"uct":0,"website":"http://www.aeroportdeconakry.com/","icao_code_source":"icao_code"}
{"id":2320,"iata":"FLN","icao":"SBFL","name":"Hercílio Luz International Airport","location":"Florianópolis, Santa Catarina, Brazil","street_number":"3393","street":"Avenida Deputado Diomício Freitas","city":"","county":"Florianópolis","state":"Santa Catarina","country_iso":"BR","country":"Brazil","postal_code":"88047-900","phone":"+55 48 3331-4000","latitude":-27.670118,"longitude":-48.545967,"uct":-180,"website":"http://www.infraero.gov.br/index.php/br/aeroportos/santa-catarina/aeroporto-internacional-de-florianopolis.html","icao_code_source":"icao_code"}
{"id":7487,"iata":"TMT","icao":"SBTB","name":"Porto Trombetas Airport","location":"Porto Trombetas / Oriximiná, Pará, Brazil","street_number":"","street":"Rua Barão do Rio Branco","city":"","county":"Oriximiná","state":"Pará","country_iso":"BR","country":"Brazil","postal_code":"68270-000","phone":"","latitude":-1.4855014,"longitude":-56.390137,"uct":-180,"website":"","icao_code_source":"icao_code"}
{"id":761,"iata":"BJP","icao":"SBBP","name":"Arthur Siqueira–Bragança Paulista State Airport","location":"Bragança Paulista, São Paulo, Brazil","street_number":"1","street":"Avenida São Francisco de Assis","city":"","county":"Bragança Paulista","state":"São Paulo","country_iso":"BR","country":"Brazil","postal_code":"12900-000","phone":"+55 11 4034-7616","latitude":-22.982595,"longitude":-46.537125,"uct":-180,"website":"","icao_code_source":"icao_code"}
{"id":1561,"iata":"CTP","icao":"SNCP","name":"Carutapera Airport","location":"Carutapera, Maranhão, Brazil","street_number":"","street":"","city":"","county":"","state":"","country_iso":"","country":"","postal_code":"","phone":"","latitude":0.0,"longitude":0.0,"uct":0,"website":"","icao_code_source":"icao_code"}
{"id":4424,"iata":"LUX","icao":"ELLX","name":"Luxembourg Findel Airport","location":"Luxembourg, Luxembourg","street_number":"","street":"","city":"Luxembourg City","county":"Luxembourg","state":"Luxembourg District","country_iso":"LU","country":"Luxembourg","postal_code":"2987","phone":"+352 24 640","latitude":49.6289,"longitude":6.2147446,"uct":120,"website":"http://www.lux-airport.lu/","icao_code_source":"icao_code"}
{"id":8874,"iata":"ZAZ","icao":"LEZG","name":"Zaragoza Airport","location":"Zaragoza, Aragon, Spain","street_number":"s/n","street":"Ctra. Aeropuerto","city":"Zaragoza","county":"Zaragoza","state":"Aragón","country_iso":"ES","country":"Spain","postal_code":"50190","phone":"+34 976 71 23 00","latitude":41.661293,"longitude":-1.0442499,"uct":120,"website":"http://www.aena.es/es/aeropuerto-zaragoza/index.html","icao_code_source":"icao_code"}
{"id":7717,"iata":"UAQ","icao":"SANU","name":"Domingo Faustino Sarmiento Airport","location":"San Juan, San Juan, Argentina","street_number":"Km 12","street":"Ruta Nacional 20","city":"• San Juan","county":"9 de Julio","state":"San Juan","country_iso":"AR","country":"Argentina","postal_code":"","phone":"+54 264 425-4133","latitude":-31.571814,"longitude":-68.42257,"uct":-180,"website":"http://www.aa2000.com.ar/aeropuertos.aspx?qId=AA2000&qA=UAQ","icao_code_source":"icao_code"}
{"id":1613,"iata":"CWB","icao":"SBCT","name":"Afonso Pena International Airport","location":"Curitiba, Paraná, Brazil","street_number":"","street":"Av. Rocha Pombo","city":"","county":"São José dos Pinhais","state":"Paraná","country_iso":"BR","country":"Brazil","postal_code":"83010-900","phone":"+55 41 3381-1515","latitude":-25.532713,"longitude":-49.17248,"uct":-180,"website":"http://www.infraero.gov.br/index.php/br/aeroportos/parana/aeroporto-afonso-pena.html","icao_code_source":"icao_code"}
{"id":6029,"iata":"POA","icao":"SBPA","name":"Salgado Filho International Airport","location":"Porto Alegre, Rio Grande do Sul, Brazil","street_number":"","street":"","city":"","county":"Porto Alegre","state":"State of Rio Grande do Sul","country_iso":"BR","country":"Brazil","postal_code":"","phone":"+55 51 3358-2000","latitude":-29.993473,"longitude":-51.17538,"uct":-180,"website":"http://www4.infraero.gov.br/aeroportos/aeroporto-internacional-de-porto-alegre-salgado-filho/","icao_code_source":"icao_code"}
{"id":2518,"iata":"GEL","icao":"SBNM","name":"Sepé Tiaraju Airport","location":"Santo Ângelo, Rio Grande do Sul, Brazil","street_number":"s/n","street":"Rodovia RS-218, km 13","city":"","county":"Santo Ângelo","state":"Rio Grande do Sul","country_iso":"BR","country":"Brazil","postal_code":"","phone":"+55 55 3313-6617","latitude":-28.280348,"longitude":-54.17094,"uct":-180,"website":"http://www.aviacao.gov.br/","icao_code_source":"icao_code"}
{"id":6335,"iata":"REC","icao":"SBRF","name":"Recife/Guararapes–Gilberto Freyre International Airport","location":"Recife, Pernambuco, Brazil","street_number":"s/n","street":"Praça Ministro Salgado Filho","city":"","county":"Recife","state":"Pernambuco","country_iso":"BR","country":"Brazil","postal_code":"51210-902","phone":"+55 81 3322-4188","latitude":-8.125932,"longitude":-34.924015,"uct":-180,"website":"http://www4.infraero.gov.br/aeroportos/aeroporto-internacional-do-recife-guararapes-gilberto-freyre/","icao_code_source":"icao_code"}
{"id":7054,"iata":"STM","icao":"SBSN","name":"Santarém-Maestro Wilson Fonseca Airport","location":"Santarém, Pará, Brazil","street_number":"s/n","street":"Praça Eduardo Gomes","city":"","county":"Santarém","state":"Pará","country_iso":"BR","country":"Brazil","postal_code":"","phone":"+55 93 3522-4328","latitude":-2.4248295,"longitude":-54.786243,"uct":-180,"website":"http://www4.infraero.gov.br/aeroportos/aeroporto-de-santarem-maestro-wilson-fonseca/","icao_code_source":"icao_code"}
{"id":6995,"iata":"SRA","icao":"SSZR","name":"Santa Rosa Airport","location":"Santa Rosa, Rio Grande do Sul, Brazil","street_number":"2200","street":"Airport Boulevard","city":"Santa Rosa","county":"Sonoma County","state":"California","country_iso":"US","country":"United States","postal_code":"95403","phone":"+1 707-565-7240","latitude":38.50923,"longitude":-122.813255,"uct":-420,"website":"http://www.sonomacountyairport.org/","icao_code_source":"icao_code"}
{"id":334,"iata":"APU","icao":"SSAP","name":"Apucarana Airport","location":"Apucarana, Paraná, Brazil","street_number":"","street":"","city":"","county":"Apucarana","state":"Paraná","country_iso":"BR","country":"Brazil","postal_code":"","phone":"","latitude":-23.608887,"longitude":-51.38369,"uct":-180,"website":"","icao_code_source":"icao_code"}
{"id":1141,"iata":"CAF","icao":"SWCA","name":"Carauari Airport","location":"Carauari, Amazonas, Brazil","street_number":"600-628","street":"Avenida Dom Pedro Segundo","city":"","county":"Carauari","state":"Amazonas","country_iso":"BR","country":"Brazil","postal_code":"69500-000","phone":"","latitude":-4.8755007,"longitude":-66.89916,"uct":-240,"website":"","icao_code_source":"icao_code"}
{"id":6929,"iata":"SOD","icao":"SDCO","name":"Bertram Luiz Leupolz–Sorocaba Airport","location":"Sorocaba, São Paulo, Brazil","street_number":"s/n","street":"Avenida Santos Dumont","city":"","county":"Sorocaba","state":"São Paulo","country_iso":"BR","country":"Brazil","postal_code":"18065-290","phone":"+55 15 3223-3333","latitude":-23.48182,"longitude":-47.48626,"uct":-180,"website":"http://www.daesp.sp.gov.br/aeroporto-detalhe/?id=893","icao_code_source":"icao_code"}
{"id":107,"iata":"AEP","icao":"SABE","name":"Jorge Newbery Airpark","location":"Buenos Aires, Argentina","street_number":"s/n","street":"Avenida Costanera Rafael Obligado","city":"","county":"Comuna 14","state":"Buenos Aires","country_iso":"AR","country":"Argentina","postal_code":"C1425","phone":"+54 11 5480-6111","latitude":-34.55803,"longitude":-58.417007,"uct":-180,"website":"http://www.aa2000.com.ar/","icao_code_source":"icao_code"}
{"id":6150,"iata":"PTY","icao":"MPTO","name":"Tocumen International Airport","location":"Panama City, Panama","street_number":"","street":"Avenida Domingo Díaz","city":"Panamá","county":"Panamá","state":"Panamá","country_iso":"PA","country":"Panama","postal_code":"","phone":"+507 238-2700","latitude":9.066701,"longitude":-79.387375,"uct":-300,"website":"http://www.tocumenpanama.aero/","icao_code_source":"icao_code"}
{"id":7728,"iata":"UBT","icao":"SDUB","name":"Ubatuba Airport (Gastão Madeira Airport)","location":"Ubatuba, São Paulo, Brazil","street_number":"","street":"","city":"","county":"","state":"","country_iso":"","country":"","postal_code":"","phone":"","latitude":0.0,"longitude":0.0,"uct":0,"website":"","icao_code_source":"icao_code"}
{"id":393,"iata":"ASU","icao":"SGAS","name":"Silvio Pettirossi International Airport","location":"Asunción, Paraguay","street_number":"","street":"Autopista Silvio Pettisossi","city":"Luque","county":"","state":"Departamento Central","country_iso":"PY","country":"Paraguay","postal_code":"","phone":"+595 21 688 2000","latitude":-25.241512,"longitude":-57.514183,"uct":-180,"website":"http://www.dinac.gov.py/v2/index.php?option=com_k2&view=itemlist&task=category&id=49:aeropuerto-internacional-silvio-pettirossi&Itemid=205","icao_code_source":"icao_code"}
{"id":7252,"iata":"TBT","icao":"SBTT","name":"Tabatinga International Airport","location":"Tabatinga, Amazonas, Brazil","street_number":"s/n","street":"Praça Marechal-do-ar Eduardo Gomes","city":"","county":"Tabatinga","state":"Amazonas","country_iso":"BR","country":"Brazil","postal_code":"69640-000","phone":"+55 97 3412-1100","latitude":-4.25038,"longitude":-69.93939,"uct":-240,"website":"http://www.infraero.gov.br/","icao_code_source":"icao_code"}
{"id":8551,"iata":"YHM","icao":"CYHM","name":"John C. Munro Hamilton International Airport","location":"Hamilton, Ontario, Canada","street_number":"9300","street":"Airport Road","city":"Hamilton","county":"Hamilton Division","state":"Ontario","country_iso":"CA","country":"Canada","postal_code":"L0R 1W0","phone":"+1 905-679-1999","latitude":43.17167,"longitude":-79.927666,"uct":-240,"website":"http://flyhamilton.ca/","icao_code_source":"icao_code"}
{"id":4694,"iata":"MII","icao":"SBML","name":"Frank Miloye Milenkowichi–Marília State Airport","location":"Marília, São Paulo, Brazil","street_number":"2100","street":"Avenida Brigadeiro Eduardo Gomes","city":"","county":"Marília","state":"São Paulo","country_iso":"BR","country":"Brazil","postal_code":"17514-050","phone":"+55 14 3433-4066","latitude":-22.19709,"longitude":-49.92981,"uct":-180,"website":"","icao_code_source":"icao_code"}
{"id":3217,"iata":"IMP","icao":"SBIZ","name":"Imperatriz Airport (Prefeito Renato Moreira Airport)","location":"Imperatriz, Maranhão, Brazil","street_number":"S/N","street":"Avenida Moacyr Spósito Ribeiro","city":"","county":"Imperatriz","state":"Maranhão","country_iso":"BR","country":"Brazil","postal_code":"65913-415","phone":"+55 99 3524-4555","latitude":-5.5316944,"longitude":-47.45607,"uct":-180,"website":"http://www4.infraero.gov.br/","icao_code_source":"icao_code"}
{"id":6182,"iata":"PVH","icao":"SBPV","name":"Governador Jorge Teixeira de Oliveira International Airport","location":"Porto Velho, Rondônia, Brazil","street_number":"S/N","street":"Avenida Governador Jorge Teixeira","city":"","county":"Porto Velho","state":"Rondônia","country_iso":"BR","country":"Brazil","postal_code":"76803-970","phone":"+55 69 3219-7450","latitude":-8.71417,"longitude":-63.89832,"uct":-240,"website":"","icao_code_source":"icao_code"}
{"id":3395,"iata":"JDO","icao":"SBJU","name":"Juazeiro do Norte Airport","location":"Juazeiro do Norte, Ceará, Brazil","street_number":"4000","street":"Avenida Virgílio Távora","city":"","county":"Juazeiro do Norte","state":"Ceará","country_iso":"BR","country":"Brazil","postal_code":"63020-735","phone":"+55 88 3311-6500","latitude":-7.2150974,"longitude":-39.27223,"uct":-180,"website":"http://www4.infraero.gov.br/aeroportos/aeroporto-de-juazeiro-do-norte-orlando-bezerra-de-menezes/","icao_code_source":"icao_code"}
{"id":8079,"iata":"VVI","icao":"SLVR","name":"Viru Viru International Airport","location":"Santa Cruz de la Sierra, Bolivia","street_number":"","street":"Avenida G77","city":"Santa Cruz de la Sierra","county":"","state":"Departamento de Santa Cruz","country_iso":"BO","country":"Bolivia","postal_code":"","phone":"+591 3 3385000","latitude":-17.64312,"longitude":-63.140755,"uct":-240,"website":"http://www.sabsa.aero/","icao_code_source":"icao_code"}
{"id":4963,"iata":"MTE","icao":"SNMA","name":"Monte Alegre Airport","location":"Monte Alegre, Pará, Brazil","street_number":"678-854","street":"Avenida Desembargador Inácio Guilhon","city":"","county":"Monte Alegre","state":"Pará","country_iso":"BR","country":"Brazil","postal_code":"68220-000","phone":"","latitude":-1.9937029,"longitude":-54.068874,"uct":-180,"website":"http://www.emsampa.com.br/aeroportos/para_monte_alegre.htm","icao_code_source":"icao_code"}
{"id":6003,"iata":"PMW","icao":"SBPJ","name":"Palmas–Brigadeiro Lysias Rodrigues Airport","location":"Palmas, Tocantins, Brazil","street_number":"s/n","street":"Avenida Joaquim Teotônio Segurado","city":"","county":"Palmas","state":"Tocantins","country_iso":"BR","country":"Brazil","postal_code":"","phone":"+55 63 3219-3700","latitude":-10.295659,"longitude":-48.35811,"uct":-180,"website":"http://www.infraero.gov.br/","icao_code_source":"icao_code"}
{"id":212,"iata":"AKL","icao":"NZAA","name":"Auckland Airport","location":"Auckland, New Zealand","street_number":"","street":"Ray Emery Drive","city":"Auckland","county":"","state":"Auckland","country_iso":"NZ","country":"New Zealand","postal_code":"2022","phone":"+64 9-275 0789","latitude":-37.008247,"longitude":174.78503,"uct":780,"website":"http://www.aucklandairport.co.nz/","icao_code_source":"icao_code"}
{"id":4642,"iata":"MGF","icao":"SBMG","name":"Sílvio Name Júnior Regional Airport","location":"Maringá, Paraná, Brazil","street_number":"S/n","street":"Avenida Doutor Vladimir Babkov","city":"","county":"Maringá","state":"Paraná","country_iso":"BR","country":"Brazil","postal_code":"","phone":"+55 44 3366-3838","latitude":-23.48028,"longitude":-52.011982,"uct":-180,"website":"http://www.aeroportomaringa.com.br/","icao_code_source":"icao_code"}
{"id":4435,"iata":"LVR","icao":"SILC","name":"Bom Futuro Municipal Airport[2]","location":"Lucas do Rio Verde, Mato Grosso, Brazil","street_number":"s/n","street":"Rod MT-449 KM 4","city":"","county":"Lucas do Rio Verde","state":"Mato Grosso","country_iso":"BR","country":"Brazil","postal_code":"78455-000","phone":"","latitude":-13.034962,"longitude":-55.942123,"uct":-240,"website":"","icao_code_source":"icao_code"}
{"id":7740,"iata":"UDI","icao":"SBUL","name":"Ten. Cel. Av. César Bombonato Airport","location":"Uberlândia, Minas Gerais, Brazil","street_number":"100","street":"Praça José Alves dos Santos","city":"","county":"Uberlândia","state":"Minas Gerais","country_iso":"BR","country":"Brazil","postal_code":"38406","phone":"+55 34 3233-5420","latitude":-18.88897,"longitude":-48.230865,"uct":-180,"website":"http://www4.infraero.gov.br/aeroportos/aeroporto-de-uberlandia-ten-cel-aviador-cesar-bombonato/","icao_code_source":"icao_code"}
{"id":6484,"iata":"ROS","icao":"SAAR","name":"Rosario – Islas Malvinas International Airport","location":"Rosario, Santa Fe, Argentina","street_number":"s/n","street":"Avenida Jorge Newbery","city":"Rosario","county":"Rosario","state":"Santa Fe","country_iso":"AR","country":"Argentina","postal_code":"S2000","phone":"+54 341 451-3220","latitude":-32.916885,"longitude":-60.78039,"uct":-180,"website":"http://aeropuertorosario.com/","icao_code_source":"icao_code"}
{"id":3406,"iata":"JFK","icao":"KJFK","name":"John F. Kennedy International Airport","location":"New York City, New York, United States","street_number":"","street":"","city":"","county":"Queens County","state":"New York","country_iso":"US","country":"United States","postal_code":"11430","phone":"+1 718-244-4444","latitude":40.64131,"longitude":-73.77814,"uct":-240,"website":"https://www.jfkairport.com/","icao_code_source":"icao_code"}
{"id":1491,"iata":"CPV","icao":"SBKG","name":"Campina Grande Airport (Presidente João Suassuna Airport)","location":"Campina Grande, Paraíba, Brazil","street_number":"S/N","street":"Avenida Uberaba","city":"","county":"Campina Grande","state":"Paraíba","country_iso":"BR","country":"Brazil","postal_code":"58418-410","phone":"+55 83 3332-9023","latitude":-7.2688785,"longitude":-35.89402,"uct":-180,"website":"http://www4.infraero.gov.br/aeroportos/aeroporto-de-campina-grande-presidente-joao-suassuna","icao_code_source":"icao_code"}
{"id":5771,"iata":"PAN","icao":"VTSK","name":"Pattani Airport","location":"Pattani, Thailand","street_number":"","street":"","city":"Bo Thong","county":"Nong Chik District","state":"Pattani","country_iso":"TH","country":"Thailand","postal_code":"94170","phone":"+66 73 341 301","latitude":6.7860346,"longitude":101.15174,"uct":420,"website":"http://minisite.airports.go.th/pattani/","icao_code_source":"icao_code"}
{"id":4027,"iata":"LAD","icao":"FNLU","name":"Quatro de Fevereiro Airport","location":"Luanda, Angola","street_number":"","street":"","city":"Luanda","county":"Luanda","state":"Luanda Province","country_iso":"AO","country":"Angola","postal_code":"","phone":"+244 442 352 387","latitude":-8.847951,"longitude":13.234862,"uct":60,"website":"http://angolaairport.net/","icao_code_source":"icao_code"}
{"id":5685,"iata":"OST","icao":"EBOS","name":"Ostend–Bruges International Airport","location":"Ostend / Bruges, Belgium","street_number":"889","street":"Nieuwpoortsesteenweg","city":"Oostende","county":"West-Vlaanderen","state":"Vlaanderen","country_iso":"BE","country":"Belgium","postal_code":"8400","phone":"+32 59 55 12 11","latitude":51.204193,"longitude":2.8698127,"uct":120,"website":"http://www.luchthaven-oostendebrugge.com/","icao_code_source":"icao_code"}
{"id":4624,"iata":"MFM","icao":"VMMC","name":"Macau International Airport","location":"Macau","street_number":"","street":"","city":"","county":"","state":"","country_iso":"MO","country":"Macau","postal_code":"","phone":"+853 2886 1111","latitude":22.157835,"longitude":113.576416,"uct":480,"website":"http://www.macau-airport.com/en","icao_code_source":"icao_code"}
{"id":6245,"iata":"QSC","icao":"SDSC","name":"Mário Pereira Lopes Airport","location":"São Carlos, São Paulo, Brazil","street_number":"","street":"","city":"","county":"","state":"","country_iso":"","country":"","postal_code":"","phone":"","latitude":0.0,"longitude":0.0,"uct":0,"website":"","icao_code_source":"icao_code"}
{"id":3290,"iata":"ISL","icao":"LTFM","name":"Istanbul New Airport","location":"Istanbul, Turkey","street_number":"","street":"","city":"","county":"Bakırköy","state":"Istanbul","country_iso":"TR","country":"Turkey","postal_code":"34149","phone":"+90 212 463 30 00","latitude":40.98299,"longitude":28.810442,"uct":180,"website":"http://www.ataturkairport.com/","icao_code_source":"icao_code"}
{"id":4598,"iata":"MEM","icao":"KMEM","name":"Memphis International Airport","location":"Memphis, Tennessee, United States","street_number":"2491","street":"Winchester Road","city":"Memphis","county":"Shelby County","state":"Tennessee","country_iso":"US","country":"United States","postal_code":"38116","phone":"+1 901-922-8000","latitude":35.04207,"longitude":-89.97917,"uct":-300,"website":"http://www.flymemphis.com/","icao_code_source":"icao_code"}
{"id":1273,"iata":"CGB","icao":"SBCY","name":"Marechal Rondon International Airport","location":"Cuiabá, Mato Grosso, Brazil","street_number":"s/n","street":"Avenida João Ponce de Arruda","city":"","county":"Várzea Grande","state":"Mato Grosso","country_iso":"BR","country":"Brazil","postal_code":"78110-900","phone":"+55 65 3614-2500","latitude":-15.653079,"longitude":-56.117268,"uct":-240,"website":"http://www4.infraero.gov.br/aeroportos/aeroporto-internacional-de-cuiaba-marechal-rondon/","icao_code_source":"icao_code"}
{"id":5640,"iata":"OPO","icao":"LPPR","name":"Francisco de Sá Carneiro Airport","location":"Porto, Portugal","street_number":"","street":"","city":"Maia","county":"","state":"Porto District","country_iso":"PT","country":"Portugal","postal_code":"4470-558","phone":"+351 22 943 2400","latitude":41.24212,"longitude":-8.678552,"uct":60,"website":"http://www.ana.pt/pt-PT/Aeroportos/Porto/Porto/Paginas/HomePorto.aspx","icao_code_source":"icao_code"}
{"id":6154,"iata":"PUC","icao":"KPUC","name":"Carbon County Regional Airport","location":"Price, Utah, United States","street_number":"3095","street":"Airport Road","city":"Price","county":"Carbon County","state":"Utah","country_iso":"US","country":"United States","postal_code":"84501","phone":"+1 435-637-9556","latitude":39.61092,"longitude":-110.752785,"uct":-360,"website":"http://redtailfbo.com/","icao_code_source":"icao_code"}
{"id":6045,"iata":"POS","icao":"TTPP","name":"Piarco International Airport","location":"Port of Spain, Trinidad and Tobago","street_number":"","street":"Golden Grove Road","city":"Piarco","county":"","state":"Tunapuna/Piarco Regional Corporation","country_iso":"TT","country":"Trinidad and Tobago","postal_code":"","phone":"+1 868-669-4880","latitude":10.597696,"longitude":-61.339527,"uct":-240,"website":"http://www.tntairports.com/piarco/index.html","icao_code_source":"icao_code"}
{"id":3100,"iata":"IAH","icao":"KIAH","name":"George Bush Intercontinental Airport","location":"Houston, Texas, United States","street_number":"2800","street":"North Terminal Road","city":"Houston","county":"Harris County","state":"Texas","country_iso":"US","country":"United States","postal_code":"77032","phone":"+1 281-230-3100","latitude":29.99022,"longitude":-95.336784,"uct":-300,"website":"http://www.fly2houston.com/","icao_code_source":"icao_code"}
{"id":3420,"iata":"JIA","icao":"SWJN","name":"Juína Airport","location":"Juína, Mato Grosso, Brazil","street_number":"","street":"","city":"","county":"Juína","state":"State of Mato Grosso","country_iso":"BR","country":"Brazil","postal_code":"78320-000","phone":"","latitude":-11.417905,"longitude":-58.708218,"uct":-240,"website":"","icao_code_source":"icao_code"}
{"id":7166,"iata":"SYD","icao":"YSSY","name":"Sydney Airport (Kingsford Smith Airport)","location":"Sydney, New South Wales, Australia","street_number":"","street":"","city":"Sydney","county":"","state":"New South Wales","country_iso":"AU","country":"Australia","postal_code":"2020","phone":"+61 2 9667 9111","latitude":-33.939922,"longitude":151.17528,"uct":660,"website":"http://www.sydneyairport.com.au/","icao_code_source":"icao_code"}
{"id":4489,"iata":"MAD","icao":"LEMD","name":"Adolfo Suárez Madrid–Barajas Airport","location":"Madrid, Spain","street_number":"s/n","street":"Avenida de la Hispanidad","city":"Madrid","county":"Madrid","state":"Comunidad de Madrid","country_iso":"ES","country":"Spain","postal_code":"28042","phone":"+34 913 21 10 00","latitude":40.498333,"longitude":-3.567598,"uct":120,"website":"http://www.aena.es/es/aeropuerto-madrid-barajas/index.html","icao_code_source":"icao_code"}
{"id":2634,"iata":"GNM","icao":"SNGI","name":"Guanambi Airport","location":"Guanambi, Bahia, Brazil","street_number":"1001","street":"Avenida Um","city":"","county":"Guanambi","state":"Bahia","country_iso":"BR","country":"Brazil","postal_code":"46430-000","phone":"+55 77 3451-1854","latitude":-14.208975,"longitude":-42.749092,"uct":-180,"website":"","icao_code_source":"icao_code"}
{"id":2214,"iata":"EWR","icao":"KEWR","name":"Newark Liberty International Airport","location":"Newark, New Jersey, United States","street_number":"3","street":"Brewster Road","city":"Newark","county":"","state":"New Jersey","country_iso":"US","country":"United States","postal_code":"7114","phone":"+1 973-961-6000","latitude":40.689533,"longitude":-74.17446,"uct":-240,"website":"http://www.panynj.gov/airports/newark-liberty.html","icao_code_source":"icao_code"}
{"id":7055,"iata":"STN","icao":"EGSS","name":"London Stansted Airport","location":"London, England, United Kingdom","street_number":"","street":"Bassingbourn Road","city":"","county":"Essex","state":"England","country_iso":"GB","country":"United Kingdom","postal_code":"CM24 1QW","phone":"+44 808 169 7031","latitude":51.886017,"longitude":0.2388661,"uct":60,"website":"https://www.stanstedairport.com/","icao_code_source":"icao_code"}
{"id":939,"iata":"BRM","icao":"SVBM","name":"Jacinto Lara International Airport","location":"Barquisimeto, Venezuela","street_number":"","street":"Avenida la Salle y Avenida Vicente Landaeta","city":"Barquisimeto","county":"Iribarren","state":"Lara","country_iso":"VE","country":"Venezuela","postal_code":"3001","phone":"+58 251-7188379","latitude":10.046086,"longitude":-69.35981,"uct":-240,"website":"http://aijl.baer.gob.ve/","icao_code_source":"icao_code"}
{"id":5794,"iata":"PBM","icao":"SMJP","name":"Johan Adolf Pengel International Airport","location":"Paramaribo, Suriname","street_number":"","street":"","city":"Paramaribo","county":"Zuid-Para","state":"Para","country_iso":"SR","country":"Suriname","postal_code":"","phone":"+597 401-348","latitude":5.456003,"longitude":-55.200058,"uct":-180,"website":"https://www.japi-airport.com/","icao_code_source":"icao_code"}
{"id":4565,"iata":"MDE","icao":"SKRG","name":"José María Córdova International Airport","location":"Medellín, Colombia","street_number":"","street":"","city":"","county":"Rionegro","state":"Antioquia","country_iso":"CO","country":"Colombia","postal_code":"54047","phone":"+57 4 4025110","latitude":6.1707635,"longitude":-75.42762,"uct":-300,"website":"http://www.aeropuertorionegro.co/","icao_code_source":"icao_code"}
{"id":3122,"iata":"ICN","icao":"RKSI","name":"Incheon International Airport","location":"Seoul, South Korea","street_number":"272","street":"","city":"","county":"","state":"Incheon","country_iso":"KR","country":"South Korea","postal_code":"","phone":"+82 1577-2600","latitude":37.46019,"longitude":126.4407,"uct":540,"website":"http://www.airport.kr/","icao_code_source":"icao_code"}
{"id":633,"iata":"BEL","icao":"SBBE","name":"Val de Cans International Airport","location":"Belém, Pará, Brazil","street_number":"s/n","street":"Avenida Júlio César","city":"","county":"Belém","state":"Pará","country_iso":"BR","country":"Brazil","postal_code":"66115-970","phone":"+55 91 3210-6000","latitude":-1.3820615,"longitude":-48.477524,"uct":-180,"website":"http://www4.infraero.gov.br/aeroportos/aeroporto-internacional-de-belem-val-de-cans-julio-cezar-ribeiro/","icao_code_source":"icao_code"}
{"id":1481,"iata":"CPH","icao":"EKCH","name":"Copenhagen Airport, Kastrup","location":"Copenhagen, Denmark","street_number":"6","street":"Lufthavnsboulevarden","city":"Kastrup","county":"","state":"","country_iso":"DK","country":"Denmark","postal_code":"2770","phone":"+45 32 31 32 31","latitude":55.618023,"longitude":12.650763,"uct":120,"website":"https://cph.dk/","icao_code_source":"icao_code"}
{"id":1386,"iata":"CLO","icao":"SKCL","name":"Alfonso Bonilla Aragón International Airport","location":"Cali, Colombia","street_number":"","street":"Vía al Aeropuerto Norte","city":"Palmira","county":"Palmira","state":"Valle del Cauca","country_iso":"CO","country":"Colombia","postal_code":"763537","phone":"+57 2 2801515","latitude":3.5439613,"longitude":-76.38406,"uct":-300,"website":"http://www.aerocali.com.co/","icao_code_source":"icao_code"}
{"id":4952,"iata":"MST","icao":"EHBK","name":"Maastricht Aachen Airport","location":"Maastricht, Netherlands","street_number":"90","street":"Vliegveldweg","city":"Maastricht-Airport","county":"Beek","state":"Limburg","country_iso":"NL","country":"Netherlands","postal_code":"6199 AD","phone":"+31 43 358 9898","latitude":50.913685,"longitude":5.773359,"uct":120,"website":"http://www.maa.nl/","icao_code_source":"icao_code"}
{"id":2318,"iata":"FLL","icao":"KFLL","name":"Fort Lauderdale–Hollywood International Airport","location":"Fort Lauderdale / Hollywood, Florida, United States","street_number":"100","street":"Terminal Drive","city":"Fort Lauderdale","county":"Broward County","state":"Florida","country_iso":"US","country":"United States","postal_code":"33315","phone":"+1 954-359-1200","latitude":26.074234,"longitude":-80.150604,"uct":-240,"website":"http://www.fll.net/","icao_code_source":"icao_code"}
{"id":3081,"iata":"HYD","icao":"VOHS","name":"Rajiv Gandhi International Airport","location":"Hyderabad, Telangana, India","street_number":"","street":"","city":"Hyderabad","county":"Ranga Reddy","state":"Telangana","country_iso":"IN","country":"India","postal_code":"500409","phone":"+91 40 6654 6370","latitude":17.240263,"longitude":78.42938,"uct":330,"website":"http://www.hyderabad.aero/","icao_code_source":"icao_code"}
{"id":369,"iata":"ARU","icao":"SBAU","name":"Araçatuba Airport","location":"Araçatuba, São Paulo, Brazil","street_number":"","street":"Via de Acesso Olegário Ferraz","city":"","county":"Araçatuba","state":"São Paulo","country_iso":"BR","country":"Brazil","postal_code":"16052-800","phone":"+55 18 3621-3001","latitude":-21.13759,"longitude":-50.425983,"uct":-180,"website":"http://www.daesp.sp.gov.br/aeroporto-detalhe/?id=841","icao_code_source":"icao_code"}
{"id":5647,"iata":"ORD","icao":"KORD","name":"O'Hare International Airport","location":"Chicago, Illinois, United States","street_number":"10000","street":"W O'Hare Ave","city":"Chicago","county":"","state":"Illinois","country_iso":"US","country":"United States","postal_code":"60666","phone":"+1 800-832-6352","latitude":41.974163,"longitude":-87.90732,"uct":-300,"website":"http://www.flychicago.com/ohare/en/home/Pages/default.aspx","icao_code_source":"icao_code"}
{"id":182,"iata":"AIR","icao":"SSOU","name":"Aripuanã Airport","location":"Aripuanã, Mato Grosso, Brazil","street_number":"","street":"Rua Beira Rio","city":"","county":"Colniza","state":"Mato Grosso","country_iso":"BR","country":"Brazil","postal_code":"78335-000","phone":"","latitude":-9.450131,"longitude":-59.201378,"uct":-240,"website":"","icao_code_source":"icao_code"}
{"id":901,"iata":"BPG","icao":"SBBW","name":"Barra do Garças Airport","location":"Barra do Garças, Mato Grosso, Brazil","street_number":"","street":"","city":"","county":"Barra do Garças","state":"Mato Grosso","country_iso":"BR","country":"Brazil","postal_code":"78600-000","phone":"+55 66 98404-7588","latitude":-15.858338,"longitude":-52.39055,"uct":-240,"website":"http://www.voeazul.com.br/","icao_code_source":"icao_code"}
{"id":6647,"iata":"SCL","icao":"SCEL","name":"Comodoro Arturo Merino Benítez International Airport","location":"Santiago, Chile","street_number":"","street":"Aviador David Fuentes","city":"Pudahuel","county":"Santiago","state":"Región Metropolitana","country_iso":"CL","country":"Chile","postal_code":"","phone":"+56 2 2690 1752","latitude":-33.39051,"longitude":-70.79381,"uct":-180,"website":"https://www.nuevopudahuel.cl/","icao_code_source":"icao_code"}
{"id":1041,"iata":"BVS","icao":"SNVS","name":"Breves Airport","location":"Breves, Pará, Brazil","street_number":"","street":"","city":"","county":"","state":"","country_iso":"","country":"","postal_code":"","phone":"","latitude":0.0,"longitude":0.0,"uct":0,"website":"","icao_code_source":"icao_code"}
{"id":6812,"iata":"SJL","icao":"SBUA","name":"São Gabriel da Cachoeira Airport","location":"São Gabriel da Cachoeira, Amazonas, Brazil","street_number":"","street":"Estrada do Aeroporto","city":"","county":"São Gabriel da Cachoeira","state":"Amazonas","country_iso":"BR","country":"Brazil","postal_code":"69750-000","phone":"","latitude":-0.1510764,"longitude":-66.9913,"uct":-240,"website":"","icao_code_source":"icao_code"}
{"id":8778,"iata":"YUL","icao":"CYUL","name":"Montréal–Pierre Elliott Trudeau International Airport","location":"Montreal, Quebec, Canada","street_number":"","street":"","city":"","county":"Montreal","state":"Quebec","country_iso":"CA","country":"Canada","postal_code":"","phone":"+1 514-394-7377","latitude":45.465687,"longitude":-73.74548,"uct":-240,"website":"http://www.admtl.com/","icao_code_source":"icao_code"}
{"id":2500,"iata":"GDL","icao":"MMGL","name":"Guadalajara International Airport (Miguel Hidalgo y Costilla Int'l)","location":"Guadalajara, Jalisco, Mexico","street_number":"","street":"Carr. Guadalajara Chapala Km 17.5","city":"","county":"","state":"Jalisco","country_iso":"MX","country":"Mexico","postal_code":"45659","phone":"+52 33 3688 5248","latitude":20.525955,"longitude":-103.307625,"uct":-300,"website":"http://www.aeropuertosgap.com.mx/es/guadalajara","icao_code_source":"icao_code"}
{"id":425,"iata":"AUA","icao":"TNCA","name":"Queen Beatrix International Airport","location":"Aruba, Kingdom of the Netherlands","street_number":"","street":"","city":"Oranjestad","county":"","state":"","country_iso":"AW","country":"Aruba","postal_code":"","phone":"+297 524 2424","latitude":12.501594,"longitude":-70.01199,"uct":-240,"website":"http://www.airportaruba.com/","icao_code_source":"icao_code"}
{"id":583,"iata":"BCN","icao":"LEBL","name":"Barcelona–El Prat Airport","location":"Barcelona, Catalonia, Spain","street_number":"","street":"","city":"El Prat de Llobregat","county":"Barcelona","state":"Catalonia","country_iso":"ES","country":"Spain","postal_code":"8820","phone":"+34 902 40 47 04","latitude":41.297443,"longitude":2.0832942,"uct":120,"website":"http://www.aena-aeropuertos.es/csee/Satellite/Aeropuerto-Barcelona","icao_code_source":"icao_code"}
{"id":4044,"iata":"LAX","icao":"KLAX","name":"Los Angeles International Airport","location":"Los Angeles, California, United States","street_number":"1","street":"World Way","city":"Los Angeles","county":"Los Angeles County","state":"California","country_iso":"US","country":"United States","postal_code":"90045","phone":"+1 855-463-5252","latitude":33.94159,"longitude":-118.40853,"uct":-420,"website":"http://www.lawa.org/welcomelax.aspx","icao_code_source":"icao_code"}
{"id":1629,"iata":"CXJ","icao":"SBCX","name":"Caxias do Sul Airport (Hugo Cantergiani Regional Airport)","location":"Caxias do Sul, Rio Grande do Sul, Brazil","street_number":"3451","street":"Avenida Salgado Filho","city":"","county":"Caxias do Sul","state":"Rio Grande do Sul","country_iso":"BR","country":"Brazil","postal_code":"95098-420","phone":"+55 54 3901-1219","latitude":-29.19492,"longitude":-51.18693,"uct":-180,"website":"http://www.transportes.rs.gov.br/dap","icao_code_source":"icao_code"}
{"id":6054,"iata":"PPB","icao":"SBDN","name":"Presidente Prudente Airport","location":"Presidente Prudente, São Paulo, Brazil","street_number":"s/nº","street":"Assis Chateaubriand, km 459","city":"","county":"Presidente Prudente","state":"São Paulo","country_iso":"BR","country":"Brazil","postal_code":"19053-680","phone":"+55 18 3222-8099","latitude":-22.17834,"longitude":-51.417664,"uct":-180,"website":"http://www.daesp.sp.gov.br/aeroporto-detalhe/?id=879","icao_code_source":"icao_code"}
{"id":7106,"iata":"SVO","icao":"UUEE","name":"Sheremetyevo International Airport","location":"Moscow, Russia","street_number":"","street":"","city":"Khimki","county":"Gorod Khimki","state":"Moscow Oblast","country_iso":"RU","country":"Russia","postal_code":"141400","phone":"+7 495 578-65-65","latitude":55.973648,"longitude":37.412502,"uct":180,"website":"http://www.svo.aero/","icao_code_source":"icao_code"}
{"id":3163,"iata":"IGR","icao":"SARI","name":"Cataratas del Iguazú International Airport","location":"Puerto Iguazú, Misiones, Argentina","street_number":"101","street":"Camino Anexo Ruta Provincial","city":"","county":"Iguazú","state":"Misiónes","country_iso":"AR","country":"Argentina","postal_code":"N3370","phone":"+54 3757 42-1996","latitude":-25.731777,"longitude":-54.47618,"uct":-180,"website":"http://www.aa2000.com.ar/iguazu","icao_code_source":"icao_code"}
{"id":877,"iata":"BOG","icao":"SKBO","name":"El Dorado International Airport","location":"Bogotá, Colombia","street_number":"","street":"","city":"","county":"","state":"Bogotá","country_iso":"CO","country":"Colombia","postal_code":"","phone":"+57 1 2662000","latitude":4.7014127,"longitude":-74.14449,"uct":-300,"website":"http://www.eldorado.aero/","icao_code_source":"icao_code"}
{"id":4585,"iata":"MDZ","icao":"SAME","name":"Gov. Francisco Gabrielli International Airport (El Plumerillo)","location":"Mendoza, Mendoza, Argentina","street_number":"","street":"","city":"","county":"","state":"","country_iso":"","country":"","postal_code":"","phone":"","latitude":0.0,"longitude":0.0,"uct":0,"website":"","icao_code_source":"icao_code"}
{"id":1367,"iata":"CKS","icao":"SBCJ","name":"Carajás Airport","location":"Parauapebas, Pará, Brazil","street_number":"","street":"","city":"","county":"Parauapebas","state":"Pará","country_iso":"BR","country":"Brazil","postal_code":"68515-000","phone":"+55 94 98403-1335","latitude":-6.114454,"longitude":-50.001007,"uct":-180,"website":"http://www.infraero.gov.br/","icao_code_source":"icao_code"}
{"id":538,"iata":"BAQ","icao":"SKBQ","name":"Ernesto Cortissoz International Airport","location":"Barranquilla, Colombia","street_number":"","street":"","city":"","county":"Soledad","state":"Atlántico","country_iso":"CO","country":"Colombia","postal_code":"","phone":"+57 5 3160900","latitude":10.886601,"longitude":-74.77643,"uct":-300,"website":"http://aeropuertobaq.com/","icao_code_source":"icao_code"}
{"id":6876,"iata":"SLZ","icao":"SBSL","name":"Marechal Cunha Machado International Airport","location":"São Luís, Maranhão, Brazil","street_number":"3503","street":"Avenida dos Libaneses","city":"","county":"São Luís","state":"Maranhão","country_iso":"BR","country":"Brazil","postal_code":"65056-480","phone":"+55 98 3217-6100","latitude":-2.5849926,"longitude":-44.23488,"uct":-180,"website":"http://www.infraero.gov.br/","icao_code_source":"icao_code"}
{"id":5852,"iata":"PEI","icao":"SKPE","name":"Matecaña International Airport","location":"Pereira, Colombia","street_number":"","street":"Vía Cerritos","city":"Pereira","county":"Pereira","state":"Risaralda","country_iso":"CO","country":"Colombia","postal_code":"660001","phone":"+57 6 3148151","latitude":4.81521,"longitude":-75.73631,"uct":-300,"website":"http://www.aeromate.gov.co/","icao_code_source":"icao_code"}
{"id":1288,"iata":"CGR","icao":"SBCG","name":"Campo Grande International Airport","location":"Campo Grande, Mato Grosso do Sul, Brazil","street_number":"s/n","street":"Av. Duque de Caxias","city":"","county":"Campo Grande","state":"Mato Grosso do Sul","country_iso":"BR","country":"Brazil","postal_code":"79101-901","phone":"+55 67 3368-6000","latitude":-20.468693,"longitude":-54.67412,"uct":-240,"website":"http://www4.infraero.gov.br/aeroportos/aeroporto-internacional-de-campo-grande/","icao_code_source":"icao_code"}
{"id":4552,"iata":"MCP","icao":"SBMQ","name":"Alberto Alcolumbre International Airport","location":"Macapá, Amapá, Brazil","street_number":"S/N","street":"Rua Hildemar Maia","city":"","county":"Macapá","state":"Amapá","country_iso":"BR","country":"Brazil","postal_code":"68908-119","phone":"+55 96 3223-2323","latitude":0.0500081,"longitude":-51.06711,"uct":-180,"website":"http://www4.infraero.gov.br/aeroportos/aeroporto-internacional-de-macapa-alberto-alcolumbre/","icao_code_source":"icao_code"}
{"id":242,"iata":"ALQ","icao":"SSLT","name":"Alegrete Airport","location":"Alegrete, Rio Grande do Sul, Brazil","street_number":"","street":"","city":"","county":"Alegrete","state":"Rio Grande do Sul","country_iso":"BR","country":"Brazil","postal_code":"","phone":"","latitude":-29.817083,"longitude":-55.89244,"uct":-180,"website":"","icao_code_source":"icao_code"}
{"id":2151,"iata":"ERN","icao":"SWEI","name":"Eirunepé Airport (Amaury Feitosa Tomaz Airport)","location":"Eirunepé, Amazonas, Brazil","street_number":"","street":"","city":"","county":"Eirunepé","state":"Amazonas","country_iso":"BR","country":"Brazil","postal_code":"69880-000","phone":"+55 32 99107-5288","latitude":-6.6368523,"longitude":-69.88315,"uct":-240,"website":"","icao_code_source":"icao_code"}
{"id":4586,"iata":"MEA","icao":"SBME","name":"Benedito Lacerda Airport","location":"Macaé, Rio de Janeiro, Brazil","street_number":"","street":"","city":"","county":"","state":"","country_iso":"","country":"","postal_code":"","phone":"","latitude":0.0,"longitude":0.0,"uct":0,"website":"","icao_code_source":"icao_code"}
{"id":6820,"iata":"SJU","icao":"TJSJ","name":"Luis Muñoz Marín International Airport","location":"San Juan, Puerto Rico","street_number":"","street":"Avenida Aeropuerto","city":"Carolina","county":"","state":"Carolina","country_iso":"PR","country":"Puerto Rico","postal_code":"979","phone":"+1 787-253-2329","latitude":18.437422,"longitude":-66.00162,"uct":-240,"website":"http://aeropuertosju.com/en/","icao_code_source":"icao_code"}
{"id":921,"iata":"BQN","icao":"TJBQ","name":"Rafael Hernández Airport","location":"Aguadilla, Puerto Rico, United States","street_number":"","street":"Hangar Road","city":"Aguadilla Pueblo","county":"","state":"Aguadilla","country_iso":"PR","country":"Puerto Rico","postal_code":"603","phone":"+1 787-890-6075","latitude":18.495396,"longitude":-67.135574,"uct":-240,"website":"http://www.prpa.gobierno.pr/","icao_code_source":"icao_code"}
{"id":5894,"iata":"PHB","icao":"SBPB","name":"Parnaíba-Prefeito Dr. João Silva Filho International Airport","location":"Parnaíba, Piauí, Brazil","street_number":"s/n","street":"Rodovia BR-343","city":"","county":"Parnaíba","state":"Piauí","country_iso":"BR","country":"Brazil","postal_code":"64206-260","phone":"+55 86 3315-3300","latitude":-2.895248,"longitude":-41.729797,"uct":-180,"website":"http://www4.infraero.gov.br/aeroportos/aeroporto-internacional-de-parnaiba-prefeito-dr-joao-silva-filho/","icao_code_source":"icao_code"}
{"id":7045,"iata":"STD","icao":"SVSO","name":"Mayor Buenaventura Vivas Airport","location":"Santo Domingo, Táchira, Venezuela","street_number":"","street":"","city":"","county":"Fernandez Feo","state":"Táchira","country_iso":"VE","country":"Venezuela","postal_code":"5032","phone":"","latitude":7.571383,"longitude":-72.04406,"uct":-240,"website":"","icao_code_source":"icao_code"}
{"id":411,"iata":"ATM","icao":"SBHT","name":"Altamira Airport","location":"Altamira, Pará, Brazil","street_number":"S/N","street":"Avenida Tancredo Neves","city":"","county":"Altamira","state":"Pará","country_iso":"BR","country":"Brazil","postal_code":"68372-590","phone":"+55 93 3515-1976","latitude":-3.2535655,"longitude":-52.24909,"uct":-180,"website":"http://www4.infraero.gov.br/aeroportos/aeroporto-de-altamira-para","icao_code_source":"icao_code"}
{"id":7348,"iata":"TGQ","icao":"SWTS","name":"Tangará da Serra Airport","location":"Tangará da Serra, Mato Grosso, Brazil","street_number":"","street":"","city":"","county":"Tangará da Serra","state":"State of Mato Grosso","country_iso":"BR","country":"Brazil","postal_code":"78300-000","phone":"+55 65 3311-4800","latitude":-14.657461,"longitude":-57.445904,"uct":-240,"website":"http://www.tangaradaserra.mt.gov.br/","icao_code_source":"icao_code"}
{"id":4202,"iata":"LIS","icao":"LPPT","name":"Lisbon Portela Airport","location":"Lisbon, Portugal","street_number":"","street":"Alameda das Comunidades Portuguesas","city":"Lisboa","county":"","state":"Lisboa","country_iso":"PT","country":"Portugal","postal_code":"1700-111","phone":"+351 21 841 3500","latitude":38.775593,"longitude":-9.135366,"uct":60,"website":"http://www.ana.pt/pt-PT/Aeroportos/Lisboa/Lisboa/Paginas/HomeLisboa.aspx","icao_code_source":"icao_code"}
{"id":1162,"iata":"CBB","icao":"SLCB","name":"Jorge Wilstermann International Airport","location":"Cochabamba, Bolivia","street_number":"","street":"","city":"Cochabamba","county":"Cercado","state":"Cochabamba Department","country_iso":"BO","country":"Bolivia","postal_code":"","phone":"+591 4 4120400","latitude":-17.417048,"longitude":-66.17871,"uct":-240,"website":"","icao_code_source":"icao_code"}
{"id":888,"iata":"BOS","icao":"KBOS","name":"Logan International Airport","location":"Boston, Massachusetts, United States","street_number":"1","street":"Harborside Drive","city":"Boston","county":"Suffolk County","state":"Massachusetts","country_iso":"US","country":"United States","postal_code":"2128","phone":"+1 800-235-6426","latitude":42.365612,"longitude":-71.00956,"uct":-240,"website":"http://www.massport.com/logan-airport","icao_code_source":"icao_code"}
{"id":6126,"iata":"PSW","icao":"SNOS","name":"Passos Airport","location":"Passos, Minas Gerais, Brazil","street_number":"","street":"","city":"","county":"Passos","state":"State of Minas Gerais","country_iso":"BR","country":"Brazil","postal_code":"","phone":"+55 35 3526-7688","latitude":-20.734102,"longitude":-46.6587,"uct":-180,"website":"","icao_code_source":"icao_code"}
{"id":5163,"iata":"NBO","icao":"HKJK","name":"Jomo Kenyatta International Airport","location":"Nairobi, Kenya","street_number":"","street":"Embakasi","city":"Nairobi","county":"","state":"Nairobi County","country_iso":"KE","country":"Kenya","postal_code":"","phone":"+254 20 822111","latitude":-1.3227102,"longitude":36.92607,"uct":180,"website":"https://www.kaa.go.ke/airports/nairobi-jomo-kenyatta-intl-airport","icao_code_source":"icao_code"}
{"id":2520,"iata":"GEO","icao":"SYCJ","name":"Cheddi Jagan International Airport","location":"Georgetown, Guyana","street_number":"","street":"Timeri","city":"East Bank Demerara","county":"","state":"Demerara-Mahaica","country_iso":"GY","country":"Guyana","postal_code":"","phone":"+592 261 2281","latitude":6.503833,"longitude":-58.25308,"uct":-240,"website":"http://www.cjairport-gy.com/","icao_code_source":"icao_code"}
{"id":6143,"iata":"PTQ","icao":"SNMZ","name":"Porto de Moz Airport","location":"Porto de Moz, Pará, Brazil","street_number":"","street":"","city":"","county":"","state":"","country_iso":"","country":"","postal_code":"","phone":"","latitude":0.0,"longitude":0.0,"uct":0,"website":"","icao_code_source":"icao_code"}
{"id":6596,"iata":"SAL","icao":"MSLP","name":"Monseñor Óscar Arnulfo Romero International Airport","location":"San Salvador, El Salvador","street_number":"","street":"RN-5","city":"San Salvador","county":"","state":"La Paz","country_iso":"SV","country":"El Salvador","postal_code":"","phone":"+503 2349 9455","latitude":13.445138,"longitude":-89.05704,"uct":-360,"website":"","icao_code_source":"icao_code"}
{"id":2761,"iata":"GVR","icao":"SBGV","name":"Coronel Altino Machado de Oliveira Airport","location":"Governador Valadares, Minas Gerais, Brazil","street_number":"s/n","street":"Avenida Industrial","city":"","county":"Governador Valadares","state":"Minas Gerais","country_iso":"BR","country":"Brazil","postal_code":"35040-260","phone":"+55 33 3277-3935","latitude":-18.897291,"longitude":-41.986973,"uct":-180,"website":"","icao_code_source":"icao_code"}
{"id":7204,"iata":"SZX","icao":"ZGSZ","name":"Shenzhen Bao'an International Airport","location":"Shenzhen, Guangdong, China","street_number":"","street":"","city":"Shenzhen","county":"","state":"Guangdong","country_iso":"CN","country":"China","postal_code":"","phone":"+86 755 2345 6789","latitude":22.636827,"longitude":113.814606,"uct":480,"website":"http://www.szairport.com/","icao_code_source":"icao_code"}
{"id":6815,"iata":"SJP","icao":"SBSR","name":"Prof. Eribelto Manoel Reino State Airport","location":"São José do Rio Preto, São Paulo, Brazil","street_number":"3505","street":"Avenida dos Estudantes","city":"","county":"São José do Rio Preto","state":"São Paulo","country_iso":"BR","country":"Brazil","postal_code":"15035-010","phone":"+55 17 3233-1919","latitude":-20.812494,"longitude":-49.404926,"uct":-180,"website":"http://www.daesp.sp.gov.br/aeroporto-detalhe/?id=889","icao_code_source":"icao_code"}
{"id":447,"iata":"AUX","icao":"SWGN","name":"Araguaína Airport","location":"Araguaína, Tocantins, Brazil","street_number":"280","street":"Avenida Dionísio Farias","city":"","county":"Araguaína","state":"Tocantins","country_iso":"BR","country":"Brazil","postal_code":"65907-230","phone":"+55 63 99291-8995","latitude":-7.2283916,"longitude":-48.240532,"uct":-180,"website":"","icao_code_source":"icao_code"}
{"id":947,"iata":"BRU","icao":"EBBR","name":"Brussels Airport (Zaventem Airport)","location":"Brussels, Belgium","street_number":"","street":"Leopoldlaan","city":"Zaventem","county":"Vlaams-Brabant","state":"Vlaanderen","country_iso":"BE","country":"Belgium","postal_code":"1930","phone":"+32 2 753 77 53","latitude":50.900997,"longitude":4.4855742,"uct":120,"website":"http://www.brusselsairport.be/","icao_code_source":"icao_code"}
{"id":718,"iata":"BHX","icao":"EGBB","name":"Birmingham Airport","location":"Birmingham, England, United Kingdom","street_number":"","street":"","city":"","county":"West Midlands","state":"England","country_iso":"GB","country":"United Kingdom","postal_code":"B26 3QJ","phone":"+44 871 222 0072","latitude":52.45238,"longitude":-1.7435071,"uct":60,"website":"http://www.birminghamairport.co.uk/","icao_code_source":"icao_code"}
{"id":2363,"iata":"FOR","icao":"SBFZ","name":"Pinto Martins – Fortaleza International Airport","location":"Fortaleza, Ceará, Brazil","street_number":"","street":"","city":"","county":"Fortaleza","state":"Ceará","country_iso":"BR","country":"Brazil","postal_code":"60741-900","phone":"+55 85 3392-1200","latitude":-3.7771554,"longitude":-38.533096,"uct":-180,"website":"http://www.infraero.gov.br/index.php/br/aeroportos/ceara/aeroporto-internacional-pinto-martins.html","icao_code_source":"icao_code"}
{"id":3465,"iata":"JOI","icao":"SBJV","name":"Joinville-Lauro Carneiro de Loyola Airport","location":"Joinville, Santa Catarina, Brazil","street_number":"9000","street":"Avenida Santos Dumont","city":"","county":"Joinville","state":"Santa Catarina","country_iso":"BR","country":"Brazil","postal_code":"89223-600","phone":"+55 47 3417-4000","latitude":-26.224194,"longitude":-48.801685,"uct":-180,"website":"http://www4.infraero.gov.br/aeroportos/aeroporto-de-joinville-lauro-carneiro-de-loyola/","icao_code_source":"icao_code"}
{"id":1279,"iata":"CGH","icao":"SBSP","name":"São Paulo–Congonhas Airport","location":"São Paulo, São Paulo, Brazil","street_number":"s/nº","street":"Avenida Washington Luís","city":"","county":"São Paulo","state":"São Paulo","country_iso":"BR","country":"Brazil","postal_code":"04626-911","phone":"+55 11 5090-9000","latitude":-23.627325,"longitude":-46.656586,"uct":-180,"website":"http://www.infraero.com.br/index.php/br/aeroportos/sao-paulo/aeroporto-de-sao-paulo-congonhas.html","icao_code_source":"icao_code"}
{"id":6557,"iata":"RVD","icao":"SWLC","name":"General Leite de Castro Airport","location":"Rio Verde, Goiás, Brazil","street_number":"s/nº","street":"Rua do Ipê","city":"","county":"Rio Verde","state":"Goiás","country_iso":"BR","country":"Brazil","postal_code":"75900-000","phone":"+55 64 3620-2125","latitude":-17.836782,"longitude":-50.958645,"uct":-180,"website":"","icao_code_source":"icao_code"}
{"id":7053,"iata":"STL","icao":"KSTL","name":"Lambert–St. Louis International Airport","location":"St. Louis, Missouri, United States","street_number":"10701","street":"Lambert International Boulevard","city":"St. Louis","county":"St. Louis County","state":"Missouri","country_iso":"US","country":"United States","postal_code":"63145","phone":"+1 314-890-1333","latitude":38.751648,"longitude":-90.37153,"uct":-300,"website":"http://www.flystl.com/","icao_code_source":"icao_code"}
{"id":146,"iata":"AGT","icao":"SGES","name":"Guaraní International Airport","location":"Ciudad del Este, Paraguay","street_number":"","street":"Ruta Internacional 7","city":"Minga Guazú","county":"Minga Guazú","state":"Departamento de Alto Paraná","country_iso":"PY","country":"Paraguay","postal_code":"","phone":"","latitude":-25.4555,"longitude":-54.843594,"uct":-180,"website":"http://www.dinac.gov.py/","icao_code_source":"icao_code"}
{"id":1105,"iata":"BYO","icao":"SBDB","name":"Bonito Airport","location":"Bonito, Mato Grosso do Sul, Brazil","street_number":"s/n","street":"MS-178","city":"","county":"Bonito","state":"Mato Grosso do Sul","country_iso":"BR","country":"Brazil","postal_code":"79290-000","phone":"+55 67 3255-3222","latitude":-21.243193,"longitude":-56.44983,"uct":-240,"website":"http://www.portalbonito.com.br/servicos/informacoes","icao_code_source":"icao_code"}
{"id":119,"iata":"AFL","icao":"SBAT","name":"Alta Floresta Airport","location":"Alta Floresta, Mato Grosso, Brazil","street_number":"","street":"","city":"","county":"Alta Floresta","state":"State of Mato Grosso","country_iso":"BR","country":"Brazil","postal_code":"78580-000","phone":"+55 66 3521-2226","latitude":-9.872357,"longitude":-56.105198,"uct":-240,"website":"","icao_code_source":"icao_code"}
{"id":6028,"iata":"PNZ","icao":"SBPL","name":"Senador Nilo Coelho Airport","location":"Petrolina, Pernambuco, Brazil","street_number":"s/n","street":"Rodovia BR 235 - km 11","city":"","county":"Petrolina","state":"Pernambuco","country_iso":"BR","country":"Brazil","postal_code":"56313-900","phone":"+55 87 3867-9600","latitude":-9.366508,"longitude":-40.566074,"uct":-180,"website":"http://www.infraero.gov.br/","icao_code_source":"icao_code"}
{"id":4487,"iata":"MAB","icao":"SBMA","name":"João Correa da Rocha Airport","location":"Marabá, Pará, Brazil","street_number":"","street":"","city":"","county":"Marabá","state":"Pará","country_iso":"BR","country":"Brazil","postal_code":"","phone":"+55 94 3324-1383","latitude":-5.3715158,"longitude":-49.13676,"uct":-180,"website":"http://www4.infraero.gov.br/aeroportos/aeroporto-de-maraba-joao-correa-da-rocha/","icao_code_source":"icao_code"}
{"id":693,"iata":"BGX","icao":"SBBG","name":"Comandante Gustavo Kraemer Airport","location":"Bagé, Rio Grande do Sul, Brazil","street_number":"","street":"","city":"Bagé","county":"Bagé","state":"Rio Grande do Sul","country_iso":"BR","country":"Brazil","postal_code":"","phone":"+55 53 3242-7702","latitude":-31.389591,"longitude":-54.11207,"uct":-180,"website":"http://www4.infraero.gov.br/aeroportos/aeroporto-internacional-de-bage-comandante-gustavo-kraemer/","icao_code_source":"icao_code"}
{"id":8947,"iata":"ZRH","icao":"LSZH","name":"Zürich Airport","location":"Zürich, Switzerland","street_number":"","street":"","city":"Zürich-Flughafen","county":"","state":"Zürich","country_iso":"CH","country":"Switzerland","postal_code":"8058","phone":"+41 43 816 22 11","latitude":47.458218,"longitude":8.555475,"uct":120,"website":"https://www.flughafen-zuerich.ch/","icao_code_source":"icao_code"}
{"id":6385,"iata":"RIA","icao":"SBSM","name":"Santa Maria Airport","location":"Santa Maria, Rio Grande do Sul, Brazil","street_number":"3249","street":"Terminal Drive","city":"Santa Maria","county":"Santa Barbara County","state":"California","country_iso":"US","country":"United States","postal_code":"93455","phone":"+1 805-922-1726","latitude":34.89914,"longitude":-120.44778,"uct":-420,"website":"http://www.santamariaairport.com/","icao_code_source":"icao_code"}
{"id":3882,"iata":"KRT","icao":"HSSS","name":"Khartoum International Airport","location":"Khartoum, Sudan","street_number":"","street":"","city":"Khartoum","county":"Khartoum","state":"Khartoum","country_iso":"SD","country":"Sudan","postal_code":"","phone":"","latitude":15.592767,"longitude":32.552235,"uct":120,"website":"","icao_code_source":"icao_code"}
{"id":6294,"iata":"RBR","icao":"SBRB","name":"Plácido de Castro International Airport","location":"Rio Branco, Acre, Brazil","street_number":"","street":"","city":"","county":"","state":"","country_iso":"","country":"","postal_code":"","phone":"","latitude":0.0,"longitude":0.0,"uct":0,"website":"","icao_code_source":"icao_code"}
{"id":2787,"iata":"GYN","icao":"SBGO","name":"Santa Genoveva Airport","location":"Goiânia, Goiás, Brazil","street_number":"s/n","street":"Alameda 4","city":"","county":"Goiânia","state":"Goiás","country_iso":"BR","country":"Brazil","postal_code":"74672-410","phone":"+55 62 3265-1500","latitude":-16.632303,"longitude":-49.216347,"uct":-180,"website":"http://www4.infraero.gov.br/aeroportos/aeroporto-de-goiania-santa-genoveva/","icao_code_source":"icao_code"}
{"id":7767,"iata":"UIO","icao":"SEQM","name":"Mariscal Sucre International Airport","location":"Quito, Ecuador","street_number":"","street":"","city":"Quito","county":"Distrito Metropolitano de Quito","state":"Pichincha","country_iso":"EC","country":"Ecuador","postal_code":"170183","phone":"+593 2-395-4200","latitude":-0.1243826,"longitude":-78.36049,"uct":-300,"website":"http://aeropuertoquito.aero/","icao_code_source":"icao_code"}
{"id":2150,"iata":"ERM","icao":"SSER","name":"Erechim Airport","location":"Erechim, Rio Grande do Sul, Brazil","street_number":"83","street":"r Delmar Rigoni","city":"","county":"Erechim","state":"Rio Grande do Sul","country_iso":"BR","country":"Brazil","postal_code":"99700-000","phone":"+55 54 3522-8552","latitude":-27.659575,"longitude":-52.276295,"uct":-180,"website":"","icao_code_source":"icao_code"}
{"id":1584,"iata":"CUN","icao":"MMUN","name":"Cancún International Airport","location":"Cancún, Quintana Roo, Mexico","street_number":"","street":"Carretera Cancún-Chetumal Km 22","city":"Cancún","county":"","state":"Quintana Roo","country_iso":"MX","country":"Mexico","postal_code":"77565","phone":"+52 55 5284 0400","latitude":21.04034,"longitude":-86.873566,"uct":-300,"website":"http://www.asur.com.mx/","icao_code_source":"icao_code"}
{"id":3398,"iata":"JED","icao":"OEJN","name":"King Abdulaziz International Airport","location":"Jeddah, Saudi Arabia","street_number":"","street":"","city":"","county":"","state":"","country_iso":"","country":"","postal_code":"","phone":"","latitude":0.0,"longitude":0.0,"uct":0,"website":"","icao_code_source":"icao_code"}
{"id":5773,"iata":"PAP","icao":"MTPP","name":"Toussaint L'Ouverture International Airport","location":"Port-au-Prince, Haiti","street_number":"","street":"Boulevard Toussaint Louverture","city":"Port-au-Prince","county":"","state":"Ouest","country_iso":"HT","country":"Haiti","postal_code":"","phone":"+509 48 65 6436","latitude":18.575655,"longitude":-72.29489,"uct":-240,"website":"http://pap.aan-haiti.com/","icao_code_source":"icao_code"}
{"id":1033,"iata":"BVH","icao":"SBVH","name":"Vilhena Airport (Brigadeiro Camarão Airport)","location":"Vilhena, Rondônia, Brazil","street_number":"6650","street":"Aeroporto Brigadeiro Camarão","city":"","county":"Vilhena","state":"Rondônia","country_iso":"BR","country":"Brazil","postal_code":"78995-000","phone":"+55 69 3321-5498","latitude":-12.689778,"longitude":-60.100487,"uct":-240,"website":"","icao_code_source":"icao_code"}
{"id":1669,"iata":"CZS","icao":"SBCZ","name":"Cruzeiro do Sul International Airport","location":"Cruzeiro do Sul, Acre, Brazil","street_number":"","street":"","city":"","county":"Cruzeiro do Sul","state":"Acre","country_iso":"BR","country":"Brazil","postal_code":"69980-970","phone":"+55 68 3311-1900","latitude":-7.598349,"longitude":-72.77343,"uct":-300,"website":"http://www4.infraero.gov.br/aeroportos/aeroporto-internacional-cruzeiro-do-sul/","icao_code_source":"icao_code"}
{"id":7410,"iata":"TJL","icao":"SBTG","name":"Plínio Alarcom Airport","location":"Três Lagoas, Mato Grosso do Sul, Brazil","street_number":"","street":"Avenida Antônio Trajano","city":"","county":"Três Lagoas","state":"Mato Grosso do Sul","country_iso":"BR","country":"Brazil","postal_code":"","phone":"","latitude":-20.753672,"longitude":-51.68211,"uct":-240,"website":"","icao_code_source":"icao_code"}
{"id":34,"iata":"ABJ","icao":"DIAP","name":"Port Bouet Airport (Felix Houphouet Boigny Int'l)","location":"Abidjan, Côte d'Ivoire","street_number":"","street":"","city":"Abidjan","county":"Abidjan","state":"Abidjan","country_iso":"CI","country":"Côte d'Ivoire","postal_code":"","phone":"+225 21 75 79 00","latitude":5.2544694,"longitude":-3.9296293,"uct":0,"website":"http://www.aeria-ci.com/","icao_code_source":"icao_code"}
{"id":7651,"iata":"TUR","icao":"SBTU","name":"Tucuruí Airport","location":"Tucuruí, Pará, Brazil","street_number":"s/n","street":"Estrada do Aeroporto, Km 5","city":"","county":"Tucuruí","state":"Pará","country_iso":"BR","country":"Brazil","postal_code":"68458-970","phone":"+55 94 3787-2522","latitude":-3.78601,"longitude":-49.7203,"uct":-180,"website":"http://www.aerolisos.com.br/encontros/tucurui-2013/_tucurui-2013.htm","icao_code_source":"icao_code"}
{"id":2782,"iata":"GYE","icao":"SEGU","name":"José Joaquín de Olmedo International Airport","location":"Guayaquil, Ecuador","street_number":"","street":"Avenida de Las Américas","city":"Guayaquil","county":"","state":"Guayas","country_iso":"EC","country":"Ecuador","postal_code":"90513","phone":"+593 4-216-9000","latitude":-2.1480534,"longitude":-79.8842,"uct":-300,"website":"http://www.tagsa.aero/","icao_code_source":"icao_code"}
{"id":2563,"iata":"GIG","icao":"SBGL","name":"Rio de Janeiro–Galeão International Airport","location":"Rio de Janeiro, Brazil","street_number":"s/nº","street":"Av. Vinte de Janeiro","city":"","county":"Rio de Janeiro","state":"Rio de Janeiro","country_iso":"BR","country":"Brazil","postal_code":"21941-900","phone":"+55 21 3004-6050","latitude":-22.805265,"longitude":-43.25663,"uct":-180,"website":"http://www.riogaleao.com/","icao_code_source":"icao_code"}
{"id":7151,"iata":"SXO","icao":"SWFX","name":"São Félix do Araguaia Airport","location":"São Félix do Araguaia, Mato Grosso, Brazil","street_number":"1408","street":"Avenida Aldenor M da Cunha","city":"","county":"São Félix do Araguaia","state":"Mato Grosso","country_iso":"BR","country":"Brazil","postal_code":"78670-000","phone":"+55 66 3522-1680","latitude":-11.632422,"longitude":-50.685997,"uct":-240,"website":"","icao_code_source":"icao_code"}
{"id":2224,"iata":"EZE","icao":"SAEZ","name":"Ministro Pistarini International Airport","location":"Buenos Aires, Argentina","street_number":"","street":"Autopista Tte Gral. Ricchieri Km 33,5","city":"Ezeiza","county":"Ezeiza","state":"Provincia de Buenos Aires","country_iso":"AR","country":"Argentina","postal_code":"B1802","phone":"+54 11 5480-6111","latitude":-34.815006,"longitude":-58.53483,"uct":-180,"website":"http://www.aa2000.com.ar/","icao_code_source":"icao_code"}
{"id":4718,"iata":"MJI","icao":"HLLM","name":"Mitiga International Airport","location":"Tripoli, Libya","street_number":"","street":"","city":"Tripoli","county":"","state":"Tripoli District","country_iso":"LY","country":"Libya","postal_code":"","phone":"","latitude":32.893585,"longitude":13.275945,"uct":120,"website":"https://www.facebook.com/MitigaAirport/","icao_code_source":"icao_code"}
{"id":5013,"iata":"MVF","icao":"SBMS","name":"Gov. Dix-Sept Rosado Airport","location":"Mossoró, Rio Grande do Norte, Brazil","street_number":"","street":"","city":"","county":"","state":"","country_iso":"","country":"","postal_code":"","phone":"","latitude":0.0,"longitude":0.0,"uct":0,"website":"","icao_code_source":"icao_code"}
{"id":3263,"iata":"IQQ","icao":"SCDA","name":"Diego Aracena International Airport","location":"Iquique, Chile","street_number":"","street":"1","city":"","county":"Iquique","state":"Región de Tarapacá","country_iso":"CL","country":"Chile","postal_code":"","phone":"","latitude":-20.536407,"longitude":-70.18052,"uct":-180,"website":"http://www.aeropuertodiegoaracena.cl/","icao_code_source":"icao_code"}
{"id":7359,"iata":"THE","icao":"SBTE","name":"Teresina–Senador Petrônio Portella Airport","location":"Teresina, Piauí, Brazil","street_number":"","street":"","city":"","county":"Teresina","state":"Piauí","country_iso":"BR","country":"Brazil","postal_code":"64006-700","phone":"+55 86 3133-6270","latitude":-5.063463,"longitude":-42.82119,"uct":-180,"website":"http://www4.infraero.gov.br/aeroportos/aeroporto-de-teresina-senador-petronio-portella/","icao_code_source":"icao_code"}
{"id":3455,"iata":"JNB","icao":"FAOR","name":"O. R. Tambo International Airport","location":"Johannesburg, South Africa","street_number":"1","street":"Jones Road","city":"Johannesburg","county":"East Rand","state":"Gauteng","country_iso":"ZA","country":"South Africa","postal_code":"1632","phone":"+27 11 921 6262","latitude":-26.136673,"longitude":28.241146,"uct":120,"website":"http://www.acsa.co.za/airports/or-tambo-international","icao_code_source":"icao_code"}
{"id":6679,"iata":"SDU","icao":"SBRJ","name":"Santos Dumont Airport","location":"Rio de Janeiro, Rio de Janeiro, Brazil","street_number":"s/n","street":"Praça Senador Salgado Filho","city":"","county":"Rio de Janeiro","state":"Rio de Janeiro","country_iso":"BR","country":"Brazil","postal_code":"20021-340","phone":"+55 21 3814-7070","latitude":-22.911144,"longitude":-43.164875,"uct":-180,"website":"http://www4.infraero.gov.br/aeroportos/aeroporto-do-rio-de-janeiro-santos-dumont/","icao_code_source":"icao_code"}
{"id":2262,"iata":"FCO","icao":"LIRF","name":"Leonardo da Vinci–Fiumicino Airport","location":"Rome, Lazio, Italy","street_number":"","street":"Via dell' Aeroporto di Fiumicino","city":"Fiumicino","county":"Città Metropolitana di Roma","state":"Lazio","country_iso":"IT","country":"Italy","postal_code":"54","phone":"+39 06 65951","latitude":41.79989,"longitude":12.246239,"uct":120,"website":"http://www.adr.it/","icao_code_source":"icao_code"}
{"id":5683,"iata":"OSR","icao":"LKMT","name":"Leoš Janáček Airport Ostrava","location":"Ostrava, Czech Republic","street_number":"","street":"","city":"Mošnov","county":"Nový Jičín","state":"Moravskoslezský kraj","country_iso":"CZ","country":"Czechia","postal_code":"742 51","phone":"+420 597 471 136","latitude":49.69696,"longitude":18.116503,"uct":120,"website":"http://www.airport-ostrava.cz","icao_code_source":"icao_code"}
{"id":1745,"iata":"DFW","icao":"KDFW","name":"Dallas/Fort Worth International Airport","location":"Dallas / Fort Worth, Texas, United States","street_number":"2400","street":"Aviation Drive","city":"DFW Airport","county":"","state":"Texas","country_iso":"US","country":"United States","postal_code":"75261","phone":"+1 972-973-3112","latitude":32.89981,"longitude":-97.04034,"uct":-300,"website":"http://www.dfwairport.com/","icao_code_source":"icao_code"}
{"id":7721,"iata":"UBA","icao":"SBUR","name":"Mário de Almeida Franco Airport","location":"Uberaba, Minas Gerais, Brazil","street_number":"","street":"Avenida Nenê Sabino","city":"","county":"Uberaba","state":"Minas Gerais","country_iso":"BR","country":"Brazil","postal_code":"38050-400","phone":"+55 34 3319-9400","latitude":-19.76504,"longitude":-47.96185,"uct":-180,"website":"http://www4.infraero.gov.br/aeroportos/aeroporto-de-uberaba-mario-de-almeida-franco/","icao_code_source":"icao_code"}
{"id":3248,"iata":"IOS","icao":"SBIL","name":"Ilhéus Jorge Amado Airport","location":"Ilhéus, Bahia, Brazil","street_number":"S/N","street":"Rua Brigadeiro Eduardo Gomes","city":"","county":"Ilhéus","state":"Bahia","country_iso":"BR","country":"Brazil","postal_code":"45654-070","phone":"+55 73 3234-4000","latitude":-14.814534,"longitude":-39.032215,"uct":-180,"website":"http://ilheusairportjorgeamado.caracolpark.co/","icao_code_source":"icao_code"}
{"id":53,"iata":"ACC","icao":"DGAA","name":"Kotoka International Airport","location":"Accra, Ghana","street_number":"","street":"Airport Road","city":"Accra","county":"Accra Metropolis","state":"Greater Accra Region","country_iso":"GH","country":"Ghana","postal_code":"","phone":"+233 30 277 6171","latitude":5.6060953,"longitude":-0.1681235,"uct":0,"website":"http://www.gacl.com.gh/","icao_code_source":"icao_code"}
{"id":112,"iata":"AEX","icao":"KAEX","name":"Alexandria International Airport","location":"Alexandria, Louisiana, United States","street_number":"1100","street":"Frank Andrews Boulevard","city":"Alexandria","county":"Rapides Parish","state":"Louisiana","country_iso":"US","country":"United States","postal_code":"71303","phone":"+1 318-449-3504","latitude":31.327412,"longitude":-92.54519,"uct":-300,"website":"http://www.englandairpark.org/aex","icao_code_source":"icao_code"}
{"id":4537,"iata":"MBZ","icao":"SWMW","name":"Maués Airport","location":"Maués, Amazonas, Brazil","street_number":"1593","street":"Estrada São João","city":"","county":"Maués","state":"Amazonas","country_iso":"BR","country":"Brazil","postal_code":"69190-000","phone":"","latitude":-3.374394,"longitude":-57.723732,"uct":-240,"website":"","icao_code_source":"icao_code"}
{"id":3531,"iata":"KAN","icao":"DNKN","name":"Mallam Aminu Kano International Airport","location":"Kano, Nigeria","street_number":"","street":"Sani Abacha Way","city":"Kano","county":"","state":"Kano","country_iso":"NG","country":"Nigeria","postal_code":"","phone":"","latitude":12.04565,"longitude":8.522076,"uct":60,"website":"http://www.faan.gov.ng/mallam-aminu-kano-international-airport/","icao_code_source":"icao_code"}
{"id":6675,"iata":"SDQ","icao":"MDSD","name":"Las Américas International Airport","location":"Santo Domingo, Dominican Republic","street_number":"","street":"Ruta 66","city":"Santo Domingo","county":"","state":"Santo Domingo","country_iso":"DO","country":"Dominican Republic","postal_code":"","phone":"+1 809-947-2225","latitude":18.431953,"longitude":-69.6721,"uct":-240,"website":"http://www.aerodom.com/app/do/frontpage.aspx","icao_code_source":"icao_code"}
{"id":628,"iata":"BEG","icao":"LYBE","name":"Belgrade Nikola Tesla Airport","location":"Belgrade, Serbia","street_number":"","street":"","city":"Beograd","county":"Grad Beograd","state":"","country_iso":"RS","country":"Serbia","postal_code":"11180","phone":"+381 11 2094444","latitude":44.8205,"longitude":20.29169,"uct":120,"website":"http://www.beg.aero/","icao_code_source":"icao_code"}
{"id":2298,"iata":"FIH","icao":"FZAA","name":"N'djili Airport (Kinshasa Int'l Airport)","location":"Kinshasa, Democratic Republic of the Congo","street_number":"","street":"","city":"Kinshasa","county":"Mont Amba","state":"Kinshasa","country_iso":"CD","country":"Democratic Republic of the Congo","postal_code":"","phone":"","latitude":-4.404734,"longitude":15.377524,"uct":60,"website":"","icao_code_source":"icao_code"}
{"id":5365,"iata":"NRT","icao":"RJAA","name":"Narita International Airport","location":"Tokyo, Honshu, Japan","street_number":"","street":"","city":"Narita","county":"","state":"Chiba-ken","country_iso":"JP","country":"Japan","postal_code":"282-0004","phone":"+81 476-34-8000","latitude":35.771988,"longitude":140.39285,"uct":540,"website":"http://www.narita-airport.jp/jp/index.html","icao_code_source":"icao_code"}
{"id":280,"iata":"ANF","icao":"SCFA","name":"Cerro Moreno International Airport","location":"Antofagasta, Chile","street_number":"","street":"","city":"Antofagasta","county":"Antofagasta","state":"Región de Antofagasta","country_iso":"CL","country":"Chile","postal_code":"","phone":"+56 55 225 4998","latitude":-23.448818,"longitude":-70.440865,"uct":-180,"website":"http://www.aeropuertoantofagasta.cl/","icao_code_source":"icao_code"}
{"id":337,"iata":"APX","icao":"SSOG","name":"Arapongas Airport","location":"Arapongas, Paraná, Brazil","street_number":"217","street":"PR-218","city":"","county":"Sabáudia","state":"Paraná","country_iso":"BR","country":"Brazil","postal_code":"86720-000","phone":"+55 43 3274-9122","latitude":-23.352522,"longitude":-51.491943,"uct":-180,"website":"","icao_code_source":"icao_code"}
{"id":4870,"iata":"MPM","icao":"FQMA","name":"Maputo International Airport","location":"Maputo, Mozambique","street_number":"3267","street":"Avenida Acordos De Lusaka","city":"2631 Maputo","county":"","state":"Maputo","country_iso":"MZ","country":"Mozambique","postal_code":"","phone":"+258 21 466 846","latitude":-25.92372,"longitude":32.574867,"uct":120,"website":"http://www.aeroportos.co.mz/","icao_code_source":"icao_code"}
{"id":1427,"iata":"CND","icao":"LRCK","name":"Mihail Kogălniceanu International Airport","location":"Constanța, Romania","street_number":"","street":"Strada Tudor Vladimirescu","city":"","county":"Comuna Mihail Kogălniceanu","state":"Județul Constanța","country_iso":"RO","country":"Romania","postal_code":"907195","phone":"+40 241 255 100","latitude":44.35013,"longitude":28.481815,"uct":180,"website":"http://www.mk-airport.ro/","icao_code_source":"icao_code"}
{"id":510,"iata":"AZA","icao":"KIWA","name":"Phoenix–Mesa Gateway Airport (FAA: IWA)","location":"Phoenix, Arizona, United States","street_number":"6033","street":"South Sossaman Road","city":"Mesa","county":"Maricopa County","state":"Arizona","country_iso":"US","country":"United States","postal_code":"85212","phone":"+1 480-988-7600","latitude":33.306534,"longitude":-111.66255,"uct":-420,"website":"http://www.gatewayairport.com/","icao_code_source":"icao_code"}
{"id":7913,"iata":"VAG","icao":"SBVG","name":"Major Brigadeiro Trompowsky Airport","location":"Varginha, Minas Gerais, Brazil","street_number":"","street":"Avenida José Ribeiro Tristão","city":"","county":"Varginha","state":"Minas Gerais","country_iso":"BR","country":"Brazil","postal_code":"37077","phone":"+55 35 3690-2264","latitude":-21.588762,"longitude":-45.47623,"uct":-180,"website":"http://www.aeroportosdobrasil.com.br/minas_gerais_mg/varginha_mg/aeroporto_varginha_mg.php","icao_code_source":"icao_code"}
{"id":1600,"iata":"CVG","icao":"KCVG","name":"Cincinnati/Northern Kentucky International Airport","location":"Hebron (near Cincinnati/OH), Kentucky, United States","street_number":"3087","street":"Terminal Drive","city":"Hebron","county":"Boone County","state":"Kentucky","country_iso":"US","country":"United States","postal_code":"41048","phone":"+1 859-767-3151","latitude":39.053276,"longitude":-84.66302,"uct":-240,"website":"http://www.cvgairport.com/","icao_code_source":"icao_code"}
{"id":7331,"iata":"TFS","icao":"GCTS","name":"Tenerife–South Airport (Reina Sofia Airport)","location":"Tenerife, Canary Islands, Spain","street_number":"","street":"","city":"","county":"Santa Cruz de Tenerife","state":"Canary Islands","country_iso":"ES","country":"Spain","postal_code":"38610","phone":"+34 913 21 10 00","latitude":28.046757,"longitude":-16.57253,"uct":60,"website":"http://www.aena-aeropuertos.es/csee/Satellite/Aeropuerto-Tenerife-Sur/en/","icao_code_source":"icao_code"}
